X,Y,OBJECTID,stop_id,stop_code,stop_name,stop_desc,stop_lat,stop_lon,zone_id,stop_url,location_type,parent_station,wheelchair_boarding,GlobalID,created_user,created_date,last_edited_user,last_edited_date
-71.082754000020557,42.330957000262245,1,1,1,Washington St opp Ruggles St,,42.330957,-71.082754,,,0,,0,{CF8940AD-5246-48AC-80CB-78557625695E},,,,
-71.068786999686623,42.330555000001993,2,10,10,Theo Glynn Way @ Newmarket Sq,,42.330555,-71.068787,,,0,,0,{52A8E79B-E08C-422B-BA13-F5DA421AF5C4},,,,
-71.062910999423679,42.355691999790338,3,10000,10000,Tremont St opp Temple Pl,,42.355692,-71.062911,,,0,,0,{E4139B4F-A712-4D50-B468-2371529BFC02},,,,
-71.076237000551217,42.331591000764291,4,10003,10003,Albany St opp Randall St,,42.331591,-71.076237,,,0,,0,{F834B903-AEC4-4370-BEBC-56D4A3CD6B20},,,,
-71.071279999738223,42.335016999546944,5,10005,10005,Albany St opp E Concord St,,42.335017,-71.07128,,,0,,0,{2A4B1777-851F-43A9-9472-C8762A7A6338},,,,
-71.070135000855146,42.335813999471782,6,10006,10006,Albany St opp E Newton St,,42.335814,-71.070135,,,0,,0,{4EE2E08C-B4E2-4430-A834-45330F9FB796},,,,
-71.066555998856231,42.338371999873701,7,10007,10007,540 Albany St opp Wareham St,,42.338372,-71.066556,,,0,,0,{38DB5366-9195-4C72-B80D-23DA1B3E3925},,,,
-71.06435600037095,42.339915000334521,8,10008,10008,Albany St opp Randolph St,,42.339915,-71.064356,,,0,,0,{D47FE3C1-01FA-4FA8-82A4-4EA3A49D90F3},,,,
-70.915923998684988,42.214986000232756,9,10009,10009,High St @ Duck Lane,,42.214986,-70.915924,,,0,,0,{653F2682-7063-40D2-B5C6-354D01A294FD},,,,
-71.169521999850119,42.307660999822325,10,1001,1001,Newton St @ Arlington Rd,,42.307661,-71.169522,,,0,,0,{F1694DA8-6DC5-44D7-9E89-C8277344B340},,,,
-71.064620998580466,42.330943999956574,11,10010,10010,Southampton St @ Newmarket St,,42.330944,-71.064621,,,0,,0,{064BEF05-A512-4CB8-9662-768FC32FC947},,,,
-71.064226999335645,42.340162000445879,12,10011,10011,Albany St @ Randolph St,,42.340162,-71.064227,,,0,,0,{FE58680C-14A1-4DC2-9C27-A105B9C14949},,,,
-71.066666999632403,42.33836100055408,13,10012,10012,Albany St @ Wareham St,,42.338361,-71.066667,,,0,,0,{5F46E44E-8C2B-413F-A18F-CA1C02B67C83},,,,
-71.067875000208417,42.337555999177191,14,10013,10013,Albany St @ E Dedham St,,42.337556,-71.067875,,,0,,0,{A2D86180-4E11-46EE-9E22-5C55F8964186},,,,
-71.072219998909475,42.334340000465147,15,10014,10014,Albany St opp Boston Medical,,42.33434,-71.07222,,,0,,0,{F2FE224E-8126-411C-A47E-3A576CBF0063},,,,
-71.072162000455876,42.337401999474935,16,10015,10015,Harrison Ave @ E Newton St,,42.337402,-71.072162,,,0,,0,{407B3223-6BA3-4F6A-B029-D8531CE821EA},,,,
-71.162383999425359,42.499402000206288,17,10016,10016,TradeCenter 128,,42.499402,-71.162384,,,0,,0,{6910AAD5-AC0A-41B4-96B8-9FCA2C7208EC},,,,
-71.027131999175623,42.338306999619917,18,10031,10031,E 1st St @ P St,,42.338307,-71.027132,,,0,,0,{18035D91-095F-4E83-911D-FAA9D06526C0},,,,
-71.029202999957832,42.338273999526237,19,10032,10032,E 1st St opp O St,,42.338274,-71.029203,,,0,,0,{04DEB5B9-DC81-435D-8899-505B998EF50F},,,,
-71.029444000039774,42.33817600023157,20,10033,10033,E 1st St @ O St,,42.338176,-71.029444,,,0,,0,{E9D18E45-907F-4694-9068-846D0454993E},,,,
-71.099485998774355,42.362987999886094,21,101,101,Massachusetts Ave @ Sidney St,,42.362988,-71.099486,,,0,,0,{52951E43-B9C3-429C-B18F-55AFCDA5C9F8},,,,
-71.076346999211552,42.331674999680615,22,10100,10100,Albany St @ Randall St,,42.331675,-71.076347,,,0,,0,{067ADB11-8DAD-47DE-9383-0B9C76C7DA71},,,,
-71.079147000919008,42.332066000050098,23,10101,10101,Melnea Cass Blvd @ Harrison Ave,,42.332066,-71.079147,,,0,,0,{6E2597B6-E477-406D-B13B-117369DC348F},,,,
-71.065218999388051,42.324778000130216,24,10134,10134,Massachusetts Ave @ NStar,,42.324778,-71.065219,,,0,,0,{852E16F2-746F-45B8-8A61-291801F3D32F},,,,
-71.103404001476974,42.365290999623028,25,102,102,Massachusetts Ave @ Prospect St,,42.365291,-71.103404,,,0,,0,{C3449B2B-B0E2-4CD8-A07B-F003582BF83B},,,,
-71.153920999593169,42.347693000511363,26,1026,1026,Chestnut Hill Ave @ Veronica Smith Ctr,,42.347693,-71.153921,,,0,,0,{37EED276-4CB5-4491-A5D6-64AD83F8ADBE},,,,
-71.152079000553883,42.3371209988332,27,1027,1027,Chestnut Hill Ave @ Englewood Ave,,42.337121,-71.152079,,,0,,0,{4A51FFC7-65E3-4BBC-9E3D-E2BB8D1A006D},,,,
-71.153084000676174,42.337950999593005,28,1028,1028,Chestnut Hill Ave @ Commonwealth Ave,,42.337951,-71.153084,,,0,,0,{3ECE253B-FF00-4568-9CDF-70514311D5B7},,,,
-71.153450999637087,42.338311998933499,29,1029,1029,Chestnut Hill Ave @ Commonwealth Ave,,42.338312,-71.153451,,,0,,0,{790E1F59-7A3D-4D93-9FD3-8EF43F43E2D5},,,,
-71.155274001098633,42.34025999911028,30,1030,1030,Chestnut Hill Ave @ Strathmore Rd,,42.34026,-71.155274,,,0,,0,{AA6FBE55-5530-4E1F-90FD-642547680DA9},,,,
-71.1547370000402,42.341095999950909,31,1031,1031,Chestnut Hill Ave @ Chiswick Rd,,42.341096,-71.154737,,,0,,0,{7084943B-10A9-4B9B-B778-B699A4E01471},,,,
-71.15346900094373,42.343064999652825,32,1032,1032,Chestnut Hill Ave opp Wiltshire Rd,,42.343065,-71.153469,,,0,,0,{EDE7A445-55E4-4CAF-8B80-EC56314AEA94},,,,
-71.153219999804435,42.344607000428525,33,1033,1033,Chestnut Hill Ave @ Wallingford Rd,,42.344607,-71.15322,,,0,,0,{4891F065-78EB-4C12-8764-1455C474A097},,,,
-71.152997000393412,42.346122999380036,34,1034,1034,Chestnut Hill Ave @ Union St,,42.346123,-71.152997,,,0,,0,{49E71B6E-9167-448A-A3FD-380D2614E929},,,,
-71.153308999480785,42.34926100020315,35,1035,1035,Market St @ Washington St,,42.349261,-71.153309,,,0,,0,{A0FB232F-5926-492A-86C3-7A4D1EA2341F},,,,
-71.151762999697382,42.351738000151897,36,1036,1036,Market St @ Sparhawk St,,42.351738,-71.151763,,,0,,0,{5E8F5FB4-F6C6-4C15-9B7E-CAA6C5DB0B30},,,,
-71.15023600002641,42.354227001148629,37,1038,1038,Market St @ Gardena St,,42.354227,-71.150236,,,0,,0,{F8E8BC90-0408-48A9-8CB5-B21A6911E202},,,,
-71.149365999155151,42.355568999793363,38,1039,1039,Market St @ N Beacon St,,42.355569,-71.149366,,,0,,0,{601CF347-74F7-48C2-ACCF-F020AAA03CA9},,,,
-71.106017000314083,42.366837000131078,39,104,104,Massachusetts Ave @ Bigelow St,,42.366837,-71.106017,,,0,,0,{DFFDB02C-1E8E-4BBF-990D-B3030242C925},,,,
-71.148285000967206,42.357312999608084,40,1040,1040,Market St @ Guest St,,42.357313,-71.148285,,,0,,0,{6CD54FED-58B1-4D3A-A2FE-8411C9E0C9A3},,,,
-71.147081999659562,42.359278999279923,41,1041,1041,Market St @ Centola St,,42.359279,-71.147082,,,0,,0,{66D88549-5868-4E35-B424-F2F27A9F2A72},,,,
-71.097752000146258,42.31506699971078,42,10413,10413,Columbus Ave @ Weld Ave,,42.315067,-71.097752,,,0,,0,{19877CD7-CA3B-4B7B-B359-A5278D508CD1},,,,
-71.087237998782285,42.298267000078638,43,10417,10417,American Legion Hwy @ Blue Hill Ave,,42.298267,-71.087238,,,0,,0,{6121FF88-1C1C-4409-96D3-3A88E2F70E97},,,,
-71.09250699967113,42.29582800014802,44,10418,10418,American Legion Hwy opp Franklin Hill Ave,,42.295828,-71.092507,,,0,,0,{4F79A145-A536-48E6-8DF3-C0987B24B8ED},,,,
-71.109847000421539,42.285932999158696,45,10419,10419,American Legion Hwy @ Canterbury St,,42.285933,-71.109847,,,0,,0,{2B7D8C73-9123-4ACA-AC87-4F3AE9FE8CD9},,,,
-71.146340999444291,42.360459000179745,46,1042,1042,Market St @ Lothrop St,,42.360459,-71.146341,,,0,,0,{19A27077-A57F-4661-90EF-B88C2E679CE9},,,,
-71.093301000775426,42.294747000828799,47,10420,10420,opp 150 American Legion Hwy,,42.294747,-71.093301,,,0,,0,{63258B4A-5BDA-4738-B963-A0A77C4B8BAA},,,,
-71.106953999687235,42.287688000818399,48,10421,10421,American Legion Hwy @ Walk Hill St,,42.287688,-71.106954,,,0,,0,{15334D17-C0F6-4181-A539-D21B97591BD4},,,,
-71.111694999651476,42.284761999974172,49,10422,10422,American Legion Hwy opp Shopping Center,,42.284762,-71.111695,,,0,,0,{0BC67424-09FE-4BBF-8133-7D72F0AF93BB},,,,
-71.116253999430143,42.280751999738676,50,10423,10423,American Legion Hwy @ Stella Rd,,42.280752,-71.116254,,,0,,0,{94604621-FAC2-4FD6-912C-AAEA2B09F3D7},,,,
-71.116715999381142,42.278467000200244,51,10424,10424,American Legion Hwy @ Cummins Hwy,,42.278467,-71.116716,,,0,,0,{8409ED11-54D8-4324-81E6-A0569A53A4B5},,,,
-71.116780999862186,42.274382000521278,52,10425,10425,American Legion Hwy opp Shopping Mall,,42.274382,-71.116781,,,0,,0,{D079D515-CF42-44E2-8D44-EEEF69C673AA},,,,
-71.112436999237588,42.28424599976983,53,10426,10426,American Legion Hwy @ Army Reserve,,42.284246,-71.112437,,,0,,0,{F3A6CBDD-C283-441C-85A9-35DDF9D13698},,,,
-71.094592999371756,42.293255000799498,54,10427,10427,American Legion Hwy opp Kingbird Rd,,42.293255,-71.094593,,,0,,0,{580C7ABF-B1BA-4F13-BF79-2BE07C95791E},,,,
-71.144412999538403,42.361668000752907,55,1043,1043,Western Ave @ Mackin St,,42.361668,-71.144413,,,0,,0,{D0BD78FB-C9BB-4C42-8EF4-92610D44D987},,,,
-71.143279000120273,42.361896999735414,56,1044,1044,Western Ave @ Richardson St,,42.361897,-71.143279,,,0,,0,{F3C0CEFC-2654-4E5C-BD75-0BCD56DF2D2F},,,,
-71.141782998965439,42.362163999600554,57,1045,1045,450 Western Ave,,42.362164,-71.141783,,,0,,0,{56420D75-9AAB-42F3-8C96-0CEBBDFEFB28},,,,
-71.139786000382429,42.362531000019203,58,1046,1046,Western Ave @ Litchfield St,,42.362531,-71.139786,,,0,,0,{4D832C94-F389-4D9A-ABC1-0CDC631A5AC9},,,,
-71.135443000239846,42.363092999101816,59,1049,1049,Western Ave @ Everett St,,42.363093,-71.135443,,,0,,0,{A24D0D96-F1BD-4302-8DE4-2BE24EE6CF3B},,,,
-71.128518001081275,42.36324799991209,60,1051,1051,Western Ave @ Travis St,,42.363248,-71.128518,,,0,,0,{222D2B1D-6240-49EC-B3D8-DD2514AC8BD6},,,,
-71.125043000332383,42.363525999995254,61,1052,1052,130 Western Ave,,42.363526,-71.125043,,,0,,0,{04F94EC1-D85A-4629-8D86-0EB4A27489E9},,,,
-71.094684000379488,42.305104000069413,62,10522,10522,Circuit Dr @ Glen Ln,,42.305104,-71.094684,,,0,,0,{693640E1-745D-46A1-BA07-55D385464ED9},,,,
-71.11980500007077,42.363915000098579,63,1053,1053,Western Ave @ Genzyme,,42.363915,-71.119805,,,0,,0,{EB480B03-C8E9-4EB7-94FF-4E41E5CBB66B},,,,
-71.08465400048452,42.280885999011574,64,10540,10540,Morton St @ Evans St,,42.280886,-71.084654,,,0,,0,{D8696994-815F-493D-8ADF-5374777D0833},,,,
-71.11437799982005,42.361912999727586,65,1055,1055,River St opp Blackstone St,,42.361913,-71.114378,,,0,,0,{5B596186-65F7-4571-9BBB-5E63222C6498},,,,
-71.112386999249722,42.36256500032993,66,1056,1056,River St @ Fairmont St,,42.362565,-71.112387,,,0,,0,{176C91EE-726E-4B8C-BEFD-7D82FDF1F5D0},,,,
-71.067029000612862,42.276284999986245,67,10569,10569,2165 Dorchester Ave,,42.276285,-71.067029,,,0,,0,{7A5E3FCA-2E64-46BC-AB29-EDC95FB89DA6},,,,
-71.108586000559853,42.363850000188989,68,1058,1058,River St @ Pleasant St,,42.36385,-71.108586,,,0,,0,{925EB6CA-05B8-40ED-8D21-20E8CAEE9D75},,,,
-71.089868000607993,42.269982999889912,69,10582,10582,River St opp Fremont St,,42.269983,-71.089868,,,0,,0,{C0B3DA13-BCE3-45AA-9489-AA9730E7B3D5},,,,
-71.076955999075054,42.33662100010018,70,10590,10590,Massachusetts Ave @ Washington St,,42.336621,-71.076956,,,0,,0,{2CDA8FCA-672B-4061-89C9-1FF3A99D16E4},,,,
-71.108618000800192,42.368390000358552,71,106,106,Massachusetts Ave @ Hancock St,,42.36839,-71.108618,,,0,,0,{907DD0DB-91C4-469D-BC05-41602B39900C},,,,
-71.104311000736502,42.3651140003645,72,1060,1060,Magazine St @ Green St,,42.365114,-71.104311,,,0,,0,{93A5D88A-DD03-4371-9E11-2C8DD535C8B5},,,,
-71.132671000989816,42.282286999428742,73,10603,10603,Washington St @ Durnell Ave,,42.282287,-71.132671,,,0,,0,{3C7D18DB-2A28-4D56-B980-F78535E49987},,,,
-71.108901000302396,42.364952000877288,74,1061,1061,Western Ave @ Kinnaird St,,42.364952,-71.108901,,,0,,0,{9E1950CD-4B6E-48C7-9F74-FDA152B3BAF8},,,,
-71.149995999371697,42.267920000154497,75,10612,10612,Washington St opp W Boundary Rd,,42.26792,-71.149996,,,0,,0,{795475CF-828A-4391-97BC-F4028E158ED2},,,,
-71.163234998841489,42.256411000555723,76,10618,10618,Washington St @ Sumner St,,42.256411,-71.163235,,,0,,0,{7B1DD0FD-E557-47AF-B4A2-1353FA744D58},,,,
-71.110648999588207,42.364798000070913,77,1062,1062,Western Ave @ Howard St,,42.364798,-71.110649,,,0,,0,{F369B8A3-0308-495A-A65F-1F57513D8698},,,,
-71.148550998853736,42.268830000259172,78,10625,10625,Washington St opp Heron St,,42.26883,-71.148551,,,0,,0,{1EECAE0F-47BE-4CF1-B6C4-EB579358850C},,,,
-71.13272699992126,42.282086999817992,79,10633,10633,Washington St @ Rosecliff St,,42.282087,-71.132727,,,0,,0,{73114DA2-B800-470F-A600-7DB49327E8A9},,,,
-71.114113999815558,42.364491999724308,80,1064,1064,Western Ave @ Putnam Ave,,42.364492,-71.114114,,,0,,0,{ACE4172A-EBFD-4716-9469-B05DE829CB0D},,,,
-71.113686000854926,42.300522999504018,81,10642,10642,Forest Hills Station Upper Busway,,42.300523,-71.113686,,,0,place-forhl,0,{401E0F81-0767-4D7D-A227-8F96552B123E},,,,
-71.119703999673689,42.364074000492003,82,1067,1067,Western Ave opp Genzyme,,42.364074,-71.119704,,,0,,0,{DCE35560-CC78-4185-9452-C4DBBDDC4CF1},,,,
-71.124387000332149,42.363685999824519,83,1068,1068,125 Western Ave,,42.363686,-71.124387,,,0,,0,{73027825-A0D7-4C46-8467-E8C2D3D51D66},,,,
-71.110772999420675,42.369265000623344,84,107,107,Massachusetts Ave @ Dana St,,42.369265,-71.110773,,,0,,0,{2945D76E-9992-46BB-AE4B-A40CFC250A1C},,,,
-71.129147999730463,42.363284000137511,85,1070,1070,Western Ave @ N Harvard St,,42.363284,-71.129148,,,0,,0,{A256750D-0FC3-48ED-876B-EA2AE10E7D76},,,,
-71.132079000300138,42.363252999922096,86,1071,1071,Western Ave opp Riverdale St,,42.363253,-71.132079,,,0,,0,{EF66923A-BA55-4E9E-99CB-9581611FD59C},,,,
-71.135542000873002,42.3631789993415,87,1072,1072,Western Ave @ Everett St,,42.363179,-71.135542,,,0,,0,{CE0EFC8A-7DD6-412D-8E77-00C55A7F364E},,,,
-71.138518999739404,42.362807000306148,88,1074,1074,367 Western Ave opp Brighton Mills Mall,,42.362807,-71.138519,,,0,,0,{DCFF41A4-8908-4F3C-BE98-0D65BC19C823},,,,
-71.139574999582237,42.362662000263207,89,1075,1075,Western Ave opp Litchfield St,,42.362662,-71.139575,,,0,,0,{A330A4DA-0B16-4D35-B3F6-515A2E785BC0},,,,
-71.141360000570174,42.3623409996326,90,1076,1076,445 Western Ave,,42.362341,-71.14136,,,0,,0,{57E58438-8CA2-4BD9-869E-E1AA4E0A5187},,,,
-71.161906999770764,42.268863000374232,91,10768,10768,Centre St @ Grove St,,42.268863,-71.161907,,,0,,0,{C55A0217-E0A8-44FB-AAC0-898ADC0DED97},,,,
-71.161805998824647,42.268890999858549,92,10769,10769,Centre St @ Grove St,,42.268891,-71.161806,,,0,,0,{66C07B13-6EFA-46EB-A2F9-BAB219BC1C56},,,,
-71.144011998629722,42.361858000012248,93,1077,1077,Western Ave opp Richardson St,,42.361858,-71.144012,,,0,,0,{6541D74D-2062-4DE3-BE2D-543C15D4CC59},,,,
-71.164194000085786,42.277170000460146,94,10777,10777,Spring St @ Cass St,,42.27717,-71.164194,,,0,,0,{70772D16-1BBF-4D48-B20E-86A5519B071F},,,,
-71.14868600052047,42.356920999658911,95,1079,1079,Market St @ Vineland St,,42.356921,-71.148686,,,0,,0,{1A59FAA9-F80C-42A3-BB2D-5048EF9DF52A},,,,
-71.112997999207835,42.370270000439717,96,108,108,Massachusetts Ave @ Trowbridge St,,42.37027,-71.112998,,,0,,0,{BEA4BF7A-A3C7-423F-B153-D8E345943CB5},,,,
-71.150345999089879,42.354328999821846,97,1081,1081,Market St opp Gardena St,,42.354329,-71.150346,,,0,,0,{A02BC7A8-B41C-436E-A43F-25C228DB4C79},,,,
-71.151522001216065,42.352415000771281,98,1082,1082,Market St. opp. Mapleton St.,,42.352415,-71.151522,,,0,,0,{2F098BEF-5368-48C7-93EC-D53A383FEA4A},,,,
-71.172102999656971,42.274822999994065,99,10820,10820,Veterans Hospital West Roxbury,,42.274823,-71.172103,,,0,,0,{53027A53-6452-432A-8187-8C155F78CDC7},,,,
-71.172520999523641,42.276825999964977,100,10821,10821,Charles Park Rd @ VFW Pkwy,,42.276826,-71.172521,,,0,,0,{81116549-D556-416E-B41A-4212B038E83A},,,,
-71.152060999399112,42.351510000403877,101,1083,1083,Market St @ Arlington St,,42.35151,-71.152061,,,0,,0,{F6C9E012-40B3-44F0-8F20-302D88669E2F},,,,
-71.172560999466185,42.276931000637553,102,10830,10830,5 Charles Park Rd,,42.276931,-71.172561,,,0,,0,{2E6F042D-9A6F-44E5-9E17-661601687315},,,,
-71.168630000967681,42.253872000508274,103,10832,10832,Dedham Mall @ Old Navy,,42.253872,-71.16863,,,0,,0,{7E39D888-841B-4F7B-8283-FB3D46C0511B},,,,
-71.16793799973938,42.257893000564806,104,10833,10833,Dedham Mall @ Stop & Shop,,42.257893,-71.167938,,,0,,0,{3F09892E-43E4-45CF-A39E-9C427488B1F2},,,,
-71.153531000669673,42.349026999808508,105,1084,1084,Chestnut Hill Ave @ Washington St,,42.349027,-71.153531,,,0,,0,{B506A088-3847-4705-949A-DEB7BFB7AD7F},,,,
-71.153749999698192,42.347089000395847,106,1085,1085,Chestnut Hill Ave @ Academy Hill Rd,,42.347089,-71.15375,,,0,,0,{C368FD47-4F8E-405C-8CD7-2485923295A6},,,,
-71.153293001070338,42.344737999567698,107,1086,1086,Chestnut Hill Ave @ Jackson Ave,,42.344738,-71.153293,,,0,,0,{A2103C70-5E42-45D4-ABC1-9053564DBE56},,,,
-71.153612999979472,42.343048999606943,108,1087,1087,Chestnut Hill Ave @ Wiltshire Rd,,42.343049,-71.153613,,,0,,0,{56B89074-3E3F-4BE6-A7A7-4B2B78D12536},,,,
-71.15469099895823,42.341436000116055,109,1088,1088,Chestnut Hill Ave @ Embassy Rd,,42.341436,-71.154691,,,0,,0,{B18E7351-B185-4629-86DC-2963AD865A6F},,,,
-71.155288000196649,42.340486000250863,110,1089,1089,Chestnut Hill Ave @ South St,,42.340486,-71.155288,,,0,,0,{B63F7065-AAFC-477F-96A6-11BFA572EC92},,,,
-71.115370999842241,42.37209900093886,111,109,109,Massachusetts Ave @ Bow St,,42.372099,-71.115371,,,0,,0,{6BA42D4E-AFD1-4132-A653-815CD6C7DA0E},,,,
-71.1537020003245,42.33832999932757,112,1090,1090,Chestnut Hill Ave @ Commonwealth Ave,,42.33833,-71.153702,,,0,,0,{E30564BB-86BD-404B-92FC-4D974876230F},,,,
-71.151237000116026,42.336218999453045,113,1092,1092,Chestnut Hill Ave @ Beacon St,,42.336219,-71.151237,,,0,,0,{2BB0E212-A660-441A-801E-8A2F5D13D581},,,,
-71.109187001221059,42.274132999627227,114,10923,10923,Cummins Hwy @ Wood Ave,,42.274133,-71.109187,,,0,,0,{1299937A-526C-4C3B-8933-81C71126E82C},,,,
-71.165213999327634,42.351893000557496,115,1093,1093,Faneuil St @ Brackett St,,42.351893,-71.165214,,,0,,0,{25A078AD-DCCE-4CC3-A2CE-7BD0557E51FD},,,,
-71.163014999607654,42.352366000412957,116,1094,1094,Faneuil St @ Fairbanks St,,42.352366,-71.163015,,,0,,0,{E1CE1DDB-D3C5-434B-8A04-B76ACC23CE94},,,,
-71.16068600027252,42.352600000138992,117,1095,1095,Faneuil St @ Oakland St,,42.3526,-71.160686,,,0,,0,{359B2BBB-4246-4AAC-8B38-E489766EC311},,,,
-71.159544000484701,42.35303300100086,118,1096,1096,Faneuil St opp Bothwell Rd,,42.353033,-71.159544,,,0,,0,{C86B71BB-F3D1-43FC-B27A-D98219484920},,,,
-71.158134001509751,42.353970000126331,119,1097,1097,Faneuil St @ S Hobart St,,42.35397,-71.158134,,,0,,0,{407D61A8-F4A2-4C7B-9BA2-8604E24C187E},,,,
-71.158565001339511,42.354857999377209,120,1098,1098,Hobart St @ Falkland St,,42.354858,-71.158565,,,0,,0,{A254A2DC-E20A-4973-8A60-2F5ADD71259A},,,,
-71.003095999360397,42.385268999875514,121,109800,109800,Saratoga St @ Saint Edward Rd,,42.385269,-71.003096,,,0,,0,{F1E05481-737D-4D9F-9344-7EAD07BF3056},,,,
-71.000907999706087,42.384486000227525,122,109801,109801,Saratoga St @ Shawsheen Rd,,42.384486,-71.000908,,,0,,0,{2F501481-49BC-426D-A8A1-D5C3D0F23E6E},,,,
-70.999451000229385,42.383937000109938,123,109802,109802,Saratoga St @ Teragram St,,42.383937,-70.999451,,,0,,0,{F02A8EF2-525D-47D4-9DD5-A5411AE00018},,,,
-70.99798500041156,42.383410999865916,124,109803,109803,Saratoga St @ Annavoy St,,42.383411,-70.997985,,,0,,0,{7130C377-6B8C-49D6-AB26-B2CD6639DC46},,,,
-70.991479000604713,42.382329999669302,125,109804,109804,Main St @ Pleasant St,,42.38233,-70.991479,,,0,,0,{8D44124E-74CF-4696-A042-C77C2508776D},,,,
-70.98896000034182,42.382135000298703,126,109805,109805,Main St @ Beal St,,42.382135,-70.98896,,,0,,0,{7EA1E9F6-843C-4975-A129-AA0E4E5C80FB},,,,
-70.985871999275048,42.379616999850327,127,109807,109807,Hermon St @ Lincoln St,,42.379617,-70.985872,,,0,,0,{65FB43FB-E83D-4DDA-B94D-D6173AD3BC41},,,,
-70.985763999772615,42.378272999610907,128,109808,109808,Hermon St opp Belcher St,,42.378273,-70.985764,,,0,,0,{56E37736-C1C0-48BD-870F-4E29B0A90D4D},,,,
-70.987693000296943,42.375908999666358,129,109809,109809,Pauline St opp Woodside Ave,,42.375909,-70.987693,,,0,,0,{8A7949C1-FC9D-47B4-8B62-8824E7B4051F},,,,
-70.991197999717244,42.374435999504215,130,109810,109810,Pauline St @ Pleasant St,,42.374436,-70.991198,,,0,,0,{8F9EB889-6406-4A94-9C8D-305090384359},,,,
-70.989765999715331,42.373180000059449,131,109811,109811,Pleasant St @ Somerset Ave,,42.37318,-70.989766,,,0,,0,{3B9CB5A6-4F33-44A7-BA4D-C4FDB221EF54},,,,
-70.987327999493772,42.372904000287591,132,109812,109812,Pleasant St @ Bartlett Rd,,42.372904,-70.987328,,,0,,0,{0AD8E67F-2708-448B-98D3-3A9A3283DDF8},,,,
-70.985855000542827,42.372729999933902,133,109813,109813,Pleasant St @ Woodside Ave,,42.37273,-70.985855,,,0,,0,{172A13D1-3208-4C7F-879B-275978BE3F1B},,,,
-70.984667999722589,42.372595000226653,134,109814,109814,Pleasant St @ Sunnyside Ave,,42.372595,-70.984668,,,0,,0,{634199BC-C941-429E-BC61-6E943EF95FF1},,,,
-70.982919998821714,42.372389000682112,135,109815,109815,Pleasant St @ Seaview Ave,,42.372389,-70.98292,,,0,,0,{15A6EA45-8464-4CA5-836F-8DE95C9E7058},,,,
-70.981131999742402,42.372198000836882,136,109816,109816,Pleasant St @ Winthrop St,,42.372198,-70.981132,,,0,,0,{A060BF27-D536-4FAE-A933-2E8D8A170654},,,,
-70.978521000338304,42.372168000125519,137,109817,109817,Washington Ave opp Willow Ave,,42.372168,-70.978521,,,0,,0,{FF429033-E671-4E32-85E8-6AA559615185},,,,
-70.976842000187361,42.372021000033321,138,109818,109818,Washington Ave opp Lewis Ave,,42.372021,-70.976842,,,0,,0,{405DA8EB-E967-4616-8577-D8B4AB8844D5},,,,
-70.974424000944083,42.3719000006611,139,109819,109819,Washington Ave opp River Rd,,42.3719,-70.974424,,,0,,0,{FEF825B3-CB64-4161-A433-E0FBB693F705},,,,
-70.971909999146391,42.372456000391821,140,109820,109820,Washington Ave opp Veterans Rd,,42.372456,-70.97191,,,0,,0,{6647758B-252A-4180-8016-8FA56D415236},,,,
-70.971584999842335,42.372700999824495,141,109821,109821,Veterans Rd @ Washington Ave,,42.372701,-70.971585,,,0,,0,{621AF3E7-D1D7-46CF-A19B-04C1B8079F94},,,,
-70.972803999567404,42.374283999483694,142,109822,109822,Veterans Rd @ Cutler St,,42.374284,-70.972804,,,0,,0,{4AFCF2DB-F009-40FE-8CFB-98BA7E5061F5},,,,
-70.974020000183799,42.375877999883031,143,109823,109823,Veterans Rd @ Levy Bramson Way,,42.375878,-70.97402,,,0,,0,{820DD428-B679-4F25-A40D-AA4D372F3293},,,,
-70.97498700073109,42.37743399986708,144,109824,109824,Veterans Rd opp Seafoam Ave,,42.377434,-70.974987,,,0,,0,{A739A54E-D57B-4E65-8814-4025C351BD19},,,,
-70.975801000865303,42.378929000584286,145,109825,109825,Veterans Rd @ Hadassah Way,,42.378929,-70.975801,,,0,,0,{35A78B5E-FA33-4469-AF85-9A7ECEB8A042},,,,
-70.975503001439691,42.381135000048438,146,109826,109826,Veterans Rd @ Shirley St,,42.381135,-70.975503,,,0,,0,{DDE8A727-D06A-43E5-B4C3-C5208146C7DA},,,,
-70.973826999425043,42.38256299929963,147,109827,109827,Veterans Rd @ Locust St,,42.382563,-70.973827,,,0,,0,{171FE986-6EEB-427D-9AFA-A5F38170B97B},,,,
-70.973152001128113,42.384521000001129,148,109828,109828,Crest Ave @ Grovers Ave,,42.384521,-70.973152,,,0,,0,{29D65C98-32C4-4481-8B61-B30DCAAE4ECE},,,,
-70.975745000209869,42.38645500012575,149,109829,109829,Crest Ave @ Highland Ave,,42.386455,-70.975745,,,0,,0,{EE780179-DB7F-4B78-B8AF-7799967C798D},,,,
-70.978052001618096,42.384735999633016,150,109830,109830,Revere St opp Summit Ave,,42.384736,-70.978052,,,0,,0,{C4CA7E3A-C257-4AE8-908F-9CF0882389F0},,,,
-70.980364999788463,42.382479999937232,151,109831,109831,Revere St @ Governors Dr,,42.38248,-70.980365,,,0,,0,{77319DF0-C47F-4E2E-B3BF-47C9ABD05D92},,,,
-70.982269999605791,42.381669999803684,152,109832,109832,Revere St @ Winthrop St,,42.38167,-70.98227,,,0,,0,{48BD6DDA-42BC-4E12-A4FC-165F7B3A695E},,,,
-70.983894999782166,42.381803999665294,153,109833,109833,Main St @ Wilshire St,,42.381804,-70.983895,,,0,,0,{B099436B-BC41-476E-B3D5-96FB08DB4C3A},,,,
-70.986121999361231,42.381999000054428,154,109834,109834,Main St @ Douglas St,,42.381999,-70.986122,,,0,,0,{06462B2C-D91D-4298-ABD2-216E8358A05A},,,,
-70.988941999464942,42.382254999729604,155,109835,109835,Main St @ Fairview St,,42.382255,-70.988942,,,0,,0,{4B2595E3-B749-4879-831E-039543F5A742},,,,
-70.991716000228124,42.38246999985958,156,109836,109836,Main St @ Pleasant St,,42.38247,-70.991716,,,0,,0,{8DA76330-253A-421D-803E-3775FE3D7584},,,,
-70.997772998825525,42.383467999668333,157,109837,109837,Saratoga St opp Annavoy St,,42.383468,-70.997773,,,0,,0,{23402F74-9947-4E5C-9100-54F16415C6C6},,,,
-70.999159000928827,42.383963000201774,158,109838,109838,Saratoga St opp Teragram St,,42.383963,-70.999159,,,0,,0,{572FD73E-2500-4457-874B-7B24F21D7B99},,,,
-71.000616000178468,42.384511000307242,159,109839,109839,Saratoga St opp Shawsheen Rd,,42.384511,-71.000616,,,0,,0,{5A936302-01D2-45CC-BF15-9FE3128E5D92},,,,
-71.002806000331574,42.38529900046251,160,109840,109840,Saratoga St @ Saint Edward Rd,,42.385299,-71.002806,,,0,,0,{041A8836-D21F-4EA2-A0DA-3B41DFEDBA99},,,,
-70.970441000623012,42.370713000813424,161,109841,109841,Shirley St opp Moore St,,42.370713,-70.970441,,,0,,0,{7AD8428B-65D0-4CF9-80D8-BEA64F3BF63F},,,,
-70.971283999383303,42.369467000233655,162,109842,109842,Shirley St opp Crystal Cove Ave,,42.369467,-70.971284,,,0,,0,{5B246A9E-0233-4172-A6C8-875344281BF1},,,,
-70.971705000738666,42.368584999859621,163,109843,109843,Shirley St @ Winthrop Yacht Club,,42.368585,-70.971705,,,0,,0,{73725358-C050-44B8-8BE8-7741DBD6EEBE},,,,
-70.969320000779874,42.365379999952431,164,109844,109844,Shirley St @ Pontos St,,42.36538,-70.96932,,,0,,0,{941DDED7-26F0-4A51-807D-AAD640A968A9},,,,
-70.970138999243417,42.363753999493838,165,109845,109845,Shirley St @ Petrel St,,42.363754,-70.970139,,,0,,0,{485E7BEA-05C9-428F-AF54-57B90F9D1A75},,,,
-70.970390000165551,42.363029999972149,166,109846,109846,Shirley St opp Yirrell Beach,,42.36303,-70.97039,,,0,,0,{6B3B7F0D-29A8-4E3D-96F9-9DFC56DB20BE},,,,
-70.970599999190028,42.362145999306264,167,109847,109847,Shirley St @ Nerious St,,42.362146,-70.9706,,,0,,0,{ECC4591B-E079-4A5A-90D6-F8CFEAB7B508},,,,
-70.970887001279678,42.360982000654019,168,109848,109848,Shirley St @ Bay View Ave,,42.360982,-70.970887,,,0,,0,{8C8268DF-B60B-4571-9245-1C582EA8ED0F},,,,
-70.970587000177787,42.358896999733886,169,109849,109849,Tafts Ave @ Otis St,,42.358897,-70.970587,,,0,,0,{DD7EC898-1B4E-4EE5-8744-4806E82C66EE},,,,
-70.970394000826531,42.358425999293821,170,109850,109850,Tafts Ave @ Townsend St,,42.358426,-70.970394,,,0,,0,{DDAE367A-049F-4062-B325-5008BF668186},,,,
-70.970134000882354,42.357855998888404,171,109851,109851,Tafts Ave @ Maryland Ave,,42.357856,-70.970134,,,0,,0,{B6598D52-7B3E-4E38-9A00-BBE313EEC3DA},,,,
-70.969720999157431,42.357021999076615,172,109852,109852,Tafts Ave opp Mugford St,,42.357022,-70.969721,,,0,,0,{EAF57459-404B-49DC-8E45-88B439F3D92E},,,,
-70.968137000799302,42.355744000171015,173,109853,109853,Deer Island - MWRA Gate,,42.355744,-70.968137,,,0,,0,{65CD3656-778D-44F1-BB7E-47FAF28AEC33},,,,
-70.969486000537472,42.35689099945391,174,109854,109854,Tafts Ave @ Mugford St,,42.356891,-70.969486,,,0,,0,{66836789-C83E-45D7-915E-8CF73FF55B7D},,,,
-70.969960001235137,42.357873999297901,175,109855,109855,Tafts Ave opp Maryland Ave,,42.357874,-70.96996,,,0,,0,{6424753D-B368-4787-ACCE-6F51EB38F208},,,,
-70.970199999960002,42.358415000535082,176,109856,109856,Tafts Ave opp Townsend St,,42.358415,-70.9702,,,0,,0,{FF9712D4-9312-45B1-8755-BC5BB5DCE648},,,,
-70.970453000796994,42.35893700070973,177,109857,109857,Tafts Ave @ Otis St,,42.358937,-70.970453,,,0,,0,{EE4E1FBB-C195-40E2-B5CA-12E15A0E92EF},,,,
-70.970795000229401,42.360775999978415,178,109858,109858,Shirley St @ Bay View Ave,,42.360776,-70.970795,,,0,,0,{EFD0C842-C889-4437-B182-B15BD66BB8FC},,,,
-70.970482999899545,42.361945999039214,179,109859,109859,Shirley St @ Nerious St,,42.361946,-70.970483,,,0,,0,{E8E1787E-9A42-481E-AB39-354892817136},,,,
-70.970216000776801,42.362995999764799,180,109860,109860,Shirley St @ Yirrell Beach,,42.362996,-70.970216,,,0,,0,{A1071C73-4BC0-4B9F-B910-C2336019A6F1},,,,
-70.970070998683724,42.363542000185241,181,109861,109861,Shirley St @ Petrel St,,42.363542,-70.970071,,,0,,0,{F71BE3AD-1DB8-43D7-8D20-10E4380EF5B1},,,,
-70.969209999726317,42.365243000189075,182,109862,109862,Shirley St opp Pontos St,,42.365243,-70.96921,,,0,,0,{76C63C87-5423-46B8-9E85-1923585D3243},,,,
-70.971565000955721,42.368588999693273,183,109863,109863,Shirley St opp Winthrop Yacht Club,,42.368589,-70.971565,,,0,,0,{E7DE4BA6-9D6A-4224-A52F-C932DD7E303F},,,,
-70.97119400042034,42.369295000022085,184,109864,109864,Shirley St @ Crystal Cove Ave,,42.369295,-70.971194,,,0,,0,{D6D2BCAC-45CA-4C45-9FDA-BC85044742B6},,,,
-70.970360999367784,42.37054899972096,185,109865,109865,Shirley St @ Moore St,,42.370549,-70.970361,,,0,,0,{35698D3E-55F2-42D6-AF67-A96CA5EADF34},,,,
-70.986149999564887,42.381888999880864,186,109868,109868,Main St @ Hermon St,,42.381889,-70.98615,,,0,,0,{2FE55811-4818-4EEA-8445-EF7E0C7427F6},,,,
-70.983943000433669,42.381686000076698,187,109869,109869,Main St opp Wilshire St,,42.381686,-70.983943,,,0,,0,{33A90EB7-8E3F-4688-9D8C-AF93C9A80874},,,,
-70.982477999622631,42.381543999562282,188,109870,109870,Main St @ Winthrop St,,42.381544,-70.982478,,,0,,0,{8AD56792-BEA2-4A76-A3E9-21FF82085EAD},,,,
-70.98046599998068,42.38231400055853,189,109871,109871,Revere St opp Governors Dr,,42.382314,-70.980466,,,0,,0,{6DC3FE9D-403A-4B6B-864D-51219B1172E8},,,,
-70.977889001095875,42.384712000592138,190,109872,109872,Revere St @ Summit Ave,,42.384712,-70.977889,,,0,,0,{9C3527CC-4D3C-4D7A-9EE0-09563A7A3979},,,,
-70.975916000489804,42.386434000493033,191,109873,109873,Revere St @ Crest Ave,,42.386434,-70.975916,,,0,,0,{E23ADAE4-CC60-4C02-81B8-0306A7A90538},,,,
-70.973252999932043,42.384428000470784,192,109874,109874,Crest Ave @ Grovers Ave,,42.384428,-70.973253,,,0,,0,{78A8DC13-0187-4D08-B7C2-88B9E5B73CDB},,,,
-70.973709000779692,42.382588999870087,193,109875,109875,Beach Rd @ Locust St,,42.382589,-70.973709,,,0,,0,{4D5B41FC-C697-4436-B7B2-B55C288D162D},,,,
-70.975001000177102,42.379053998913413,194,109877,109877,Shirley St opp Coral Ave,,42.379054,-70.975001,,,0,,0,{65345C6D-A87D-4442-A591-932566549CA6},,,,
-70.97468800079865,42.377526000242618,195,109878,109878,Shirley St opp Seafoam Ave,,42.377526,-70.974688,,,0,,0,{0DD02747-D7E1-4FC9-9F96-E352AB42110F},,,,
-70.973917999906604,42.376140999614336,196,109879,109879,Shirley St @ Levy Bramson Way,,42.376141,-70.973918,,,0,,0,{73F332D7-E52A-44F0-969D-8056044BFA2C},,,,
-70.972555000833324,42.374554000306581,197,109880,109880,Shirley St @ Cutler St,,42.374554,-70.972555,,,0,,0,{3721E509-CBBC-4A90-AE8C-049FCF2425E2},,,,
-70.9742400010457,42.372069000323833,198,109883,109883,Washington Ave @ River Rd,,42.372069,-70.97424,,,0,,0,{51E79B37-B71D-4DBD-9BE4-B99DD1F5809D},,,,
-70.976576999386651,42.37211400115946,199,109884,109884,Washington Ave @ Lewis Ave,,42.372114,-70.976577,,,0,,0,{B72C5D5A-D4E9-4EB0-B0EB-8766AB6F3CEF},,,,
-70.978264999984717,42.372280000190884,200,109885,109885,Washington Ave @ Willow Ave,,42.37228,-70.978265,,,0,,0,{3218CA67-FD63-4B58-9286-0A67806CABB3},,,,
-70.980875001492223,42.372303000360738,201,109886,109886,Washington Ave @ Winthrop St,,42.372303,-70.980875,,,0,,0,{9A652C47-E13D-47C1-896C-1CF76FD9919B},,,,
-70.982653999703757,42.372479000125011,202,109887,109887,Pleasant St @ Vine Ave,,42.372479,-70.982654,,,0,,0,{29055DA3-E6A5-4973-9E0F-87F26288F50C},,,,
-70.984400999459041,42.372686000625862,203,109888,109888,Pleasant St @ Buchanan St,,42.372686,-70.984401,,,0,,0,{FF36FB79-6DA4-4984-9EAB-03093510EC9D},,,,
-70.985587999526388,42.372821999880529,204,109889,109889,Pleasant St @ Woodside Ave,,42.372822,-70.985588,,,0,,0,{593D88DD-3800-46EF-878A-C7038B472F3C},,,,
-70.987061000255224,42.372994999933546,205,109890,109890,Pleasant St @ Bartlett Rd,,42.372995,-70.987061,,,0,,0,{44BB3824-36B2-4492-843A-3E4B53807971},,,,
-70.989729000163251,42.373300999953869,206,109891,109891,Pleasant St @ Somerset Ave,,42.373301,-70.989729,,,0,,0,{49F3FF18-3B39-414D-96A3-05B65C82B40F},,,,
-70.991123000800087,42.37431000031367,207,109892,109892,Pauline St @ Pleasant St,,42.37431,-70.991123,,,0,,0,{9E0DA53C-FB85-415B-B9CE-3D10ADD0940F},,,,
-70.987602999304329,42.37581099973977,208,109893,109893,Pauline St @ Woodside Ave,,42.375811,-70.987603,,,0,,0,{02B7ED0D-1866-4FB7-BF2C-AE33BC9CF35C},,,,
-70.985456999987733,42.378201999414784,209,109894,109894,Hermon St @ Belcher St,,42.378202,-70.985457,,,0,,0,{C1E4E7DE-A72A-49CA-A838-B302F0ABB16D},,,,
-70.985699000768463,42.379628000386973,210,109895,109895,Hermon St @ Lincoln St,,42.379628,-70.985699,,,0,,0,{5EE99D68-58A1-4B3D-B36A-E36EC7FE9CCA},,,,
-70.985939000008642,42.381453000113382,211,109896,109896,Hermon St @ Main St,,42.381453,-70.985939,,,0,,0,{76AD0022-B582-43E3-998A-1E561A2F00D8},,,,
-70.971283001119318,42.372757999549414,212,109898,109898,Shirley St @ Washington Ave,,42.372758,-70.971283,,,0,,0,{8C305D14-1913-4C25-917B-454FB8DC7EF0},,,,
-70.976634999816795,42.385674000181915,213,109899,109899,Revere St @ Golden Dr,,42.385674,-70.976635,,,0,,0,{677B2874-0CB0-4604-922E-2571D65FD19E},,,,
-70.976529000641435,42.385582000087737,214,109900,109900,Revere St @ Hutchinson St,,42.385582,-70.976529,,,0,,0,{9D6CC9CE-CCEC-4AC1-990B-B6FA4679B0A8},,,,
-70.974995999184131,42.380763999696462,215,109901,109901,Shirley St @ Beach Rd,,42.380764,-70.974996,,,0,,0,{3FFA390E-6D91-44BC-B172-94189209E61A},,,,
-70.97440200007803,42.376909000199902,216,109902,109902,Shirley St opp Wave Way,,42.376909,-70.974402,,,0,,0,{1D7E4154-806A-46F6-AE56-998034FB0ABF},,,,
-70.984488999429217,42.376864999607996,217,109905,109905,Pauline St @ Hermon St,,42.376865,-70.984489,,,0,,0,{C3645409-CC87-4CA9-950F-4B5164CD1F83},,,,
-70.974236001371324,42.385179999966823,218,109906,109906,Crest Ave @ Hutchinson St,,42.38518,-70.974236,,,0,,0,{D2FB9F16-E33C-498A-9B82-901EE9B6FF9F},,,,
-70.971368999940793,42.360109999831145,219,109914,109914,Shirley St @ Tafts Ave,,42.36011,-70.971369,,,0,,0,{7705CCC1-2D04-45D9-9A45-077175B09684},,,,
-70.98451499902859,42.377010999623103,220,109915,109915,Hermon St @ Pauline St,,42.377011,-70.984515,,,0,,0,{BA6BA005-D5EB-4061-9841-88ED8B19A3C7},,,,
-71.084459000355665,42.334762999584171,221,11,11,Melnea Cass Blvd @ Kerr Way,,42.334763,-71.084459,,,0,,0,{C5DEFB0C-B0E6-410E-A5F2-6C8E7F444D40},,,,
-71.118123999481142,42.373259000526581,222,110,110,Massachusetts Ave @ Holyoke St,,42.373259,-71.118124,,,0,,0,{726012A0-5EC7-48A2-A264-191A20CF1419},,,,
-71.162427999231539,42.355539000183498,223,1100,1100,Hobart St @ Brooks St,,42.355539,-71.162428,,,0,,0,{24600304-037E-4EC1-B4D3-B39387591AE8},,,,
-71.157999001202469,42.358296999347907,224,1102,1102,N Beacon St @ Parsons St,,42.358297,-71.157999,,,0,,0,{D67CB1AF-B586-41ED-8C52-460BD71FF88A},,,,
-71.154024000595697,42.35757699926473,225,1103,1103,N Beacon St @ Goodenough St,,42.357577,-71.154024,,,0,,0,{0C59FEF4-8B05-43FC-86EA-6674D44B227E},,,,
-71.152801001146798,42.35699999962651,226,1104,1104,N Beacon St opp Vineland St,,42.357,-71.152801,,,0,,0,{4C9A4C11-C1FE-4868-90FC-159095A65CCB},,,,
-71.148687001125808,42.355922999816826,227,1105,1105,N Beacon @ Market St,,42.355923,-71.148687,,,0,,0,{57B03190-2E6D-4F27-A59A-DC0BEE4EC3F7},,,,
-71.146497000495714,42.355386999599865,228,1107,1107,N Beacon St @ Etna St,,42.355387,-71.146497,,,0,,0,{A433EFD8-8B6B-4A59-B5EE-59657551B35B},,,,
-71.145629999729962,42.356929999225905,229,11070,11070,Life St @ Guest St,,42.35693,-71.14563,,,0,,0,{0812B291-E747-4376-B67C-E6436F7ECD49},,,,
-71.141650999655042,42.356312999366665,230,11071,11071,Arthur St @ Guest St - Stop & Shop,,42.356313,-71.141651,,,0,,0,{99CEBF8D-F50E-4657-B2DE-60E0B9D4F31B},,,,
-71.154032000626543,42.347618999824626,231,1108,1108,Chestnut Hill Ave opp Veronica Smith Ctr,,42.347619,-71.154032,,,0,,0,{5E17BF13-8D2D-4978-ABFC-9570B986F6E7},,,,
-71.141509999894836,42.354115000308575,232,1109,1109,N Beacon St @ Saunders St,,42.354115,-71.14151,,,0,,0,{F9C9EE49-DD64-4AEF-AE4C-3C7E092D3D82},,,,
-71.040238000615972,42.317183998941658,233,111,111,Mt Vernon St @ South Point Dr,,42.317184,-71.040238,,,0,,0,{0F744C4A-9C73-4ABA-908D-AC4B8CFD72DF},,,,
-71.138172999631436,42.353583000094446,234,1110,1110,N Beacon St @ Cambridge St,,42.353583,-71.138173,,,0,,0,{95B4C3EE-6E91-4920-ACDE-977CA98A68D9},,,,
-71.136364999318559,42.353931000580516,235,1111,1111,Cambridge St opp Hano St,,42.353931,-71.136365,,,0,,0,{20573869-9AB3-48CE-88AD-FDAE0EBB9603},,,,
-71.038916000304056,42.311967001052601,236,11111,11111,UMass Boston Busway,,42.311967,-71.038916,,,0,,0,{05289934-F11C-4F4E-90D2-CFC261E1C64F},,,,
-70.919766001080902,42.30367600018463,237,111146,111146,Pemberton Point,,42.303676,-70.919766,,,0,,0,{B52E343B-7E6D-416A-A3FF-6108C66CD0D8},,,,
-70.913292999480134,42.303427000023575,238,111152,111152,Main St from Pemberton Pnt to Spring St (FLAG),,42.303427,-70.913293,,,0,,0,{A4B5FC8A-8DBB-4103-B1A8-83444B172FF8},,,,
-70.902498000395596,42.302957999394707,239,111159,111159,Spring St from Main St to Nantasket Ave (FLAG),,42.302958,-70.902498,,,0,,0,{0CBAF44C-5BCC-457B-837D-88F2F5DBA31E},,,,
-70.889853999981256,42.30871999914028,240,111165,111165,Nantasket Ave from Spring St to Y St (FLAG),,42.30872,-70.889854,,,0,,0,{E15D3F17-E90B-45F9-8C10-D4AC11EBDA8A},,,,
-70.88217799959105,42.298618999359277,241,111179,111179,Nantasket Ave from Y St to A St (FLAG),,42.298619,-70.882178,,,0,,0,{2B8C75AB-E905-465D-AEBC-0810BDFA1F95},,,,
-70.876717001036283,42.287379000168649,242,111196,111196,Nantasket Ave from A St to Kenberma St (FLAG),,42.287379,-70.876717,,,0,,0,{81C6BB25-B456-4E53-89BC-56ECF96ED7FF},,,,
-71.133177999968026,42.355251999202068,243,1112,1112,Cambridge St @ Harvard Ave,,42.355252,-71.133178,,,0,,0,{DB03742A-9865-4D02-9001-1CCB611CB654},,,,
-70.869833000750248,42.279454999333026,244,111206,111206,Nantasket Ave from Kenberma St to Bay St (FLAG),,42.279455,-70.869833,,,0,,0,{EAE100FC-8354-4403-971F-3AC3C5DA0C7C},,,,
-70.86017999863104,42.273140000939712,245,111214,111214,Nantasket Ave from Bay St to Wash Blvd (FLAG),,42.27314,-70.86018,,,0,,0,{AB572753-48B3-4040-B5F1-B0728D369C9D},,,,
-70.856876999692545,42.270704000325388,246,111217,111217,Nantasket Ave from Wash Blvd to Park Ave (FLAG),,42.270704,-70.856877,,,0,,0,{D98F49D3-4C61-4EE1-BBD6-FB1D794AC1C0},,,,
-70.853300000152771,42.267538999807094,247,111219,111219,Park Ave from Nantasket Ave to Rockland Cir (FLAG),,42.267539,-70.8533,,,0,,0,{6A2A0648-528F-4C57-A37E-6BE21523C378},,,,
-70.853887999617754,42.266442000548146,248,111220,111220,Rockland Cir from Park to Rockland House Rd (FLAG),,42.266442,-70.853888,,,0,,0,{5ABBAA16-589B-4BA2-B107-980111C6A3D0},,,,
-70.857549999108741,42.264869999395977,249,111222,111222,Wash Blvd from Rockland House Rd to Med Ctr (FLAG),,42.26487,-70.85755,,,0,,0,{52F95EFF-4905-4767-B784-A3FE6BA9546E},,,,
-70.859294998690416,42.263533999019451,250,111223,111223,Wash Blvd @ Hull Medical Ctr (FLAG),,42.263534,-70.859295,,,0,,0,{C35FD782-195C-4DC7-8F40-853246BDCC96},,,,
-70.857453999484804,42.264763000144278,251,111224,111224,Wash Blvd from Med Ctr to Rockland House Rd (FLAG),,42.264763,-70.857454,,,0,,0,{31E44FAB-6BD6-4F4F-A296-D3264CC3F3BD},,,,
-70.852843999471133,42.265808999858024,252,111228,111228,Rockland House Rd - Wash Blvd to Nantasket Ave,,42.265809,-70.852844,,,0,,0,{4237828C-9097-4D65-8C17-C8303FB8C390},,,,
-70.846749000953366,42.265538999526036,253,111232,111232,Atlantic Ave - Nantasket Ave to School St (FLAG),,42.265539,-70.846749,,,0,,0,{A6485115-A7B6-4D4E-9F12-365CDDBE99DA},,,,
-70.845969999313766,42.264410999459535,254,111234,111234,School St - Atlantic Ave to Nantasket Ave (FLAG),,42.264411,-70.84597,,,0,,0,{7894AFE3-0194-4900-BAB0-04401F987FFB},,,,
-70.845016000300561,42.261534999686127,255,111236,111236,Nantasket Ave from School St to Rockland St (FLAG),,42.261535,-70.845016,,,0,,0,{057A4399-F5D6-4DE6-9F75-559C58B688C3},,,,
-70.851740000079587,42.255540000440291,256,111239,111239,Rockland St from Nantasket Ave to Kilby St (FLAG),,42.25554,-70.85174,,,0,,0,{75F42115-73C0-4452-BF46-FA1950E7FE86},,,,
-70.86565400001119,42.250340999879121,257,111244,111244,Rockland St From Kilby St to Summer St (FLAG),,42.250341,-70.865654,,,0,,0,{C119E3BD-E1BE-43FA-8463-7DA0AD05998D},,,,
-70.876317000586837,42.24771600011082,258,111248,111248,Summer St from Rockland St to Cushing Way (FLAG),,42.247716,-70.876317,,,0,,0,{922D4244-B464-4792-965A-74CEAA390A83},,,,
-70.882912999185777,42.24568600013103,259,111251,111251,Summer St from Cushing Way to Water St (FLAG),,42.245686,-70.882913,,,0,,0,{10310A2A-2BE0-43D1-9D43-A5C7074ADC0F},,,,
-70.882667999843491,42.245593000313427,260,111258,111258,Summer St from Water St to Cushing Way (FLAG),,42.245593,-70.882668,,,0,,0,{3520A8C5-DD8A-4071-9E3D-5B088B85A5D4},,,,
-70.876578000973865,42.24761699986707,261,111259,111259,Summer St from Cushing Way to Rockland St (FLAG),,42.247617,-70.876578,,,0,,0,{A9692B71-40B1-4A35-817B-742EFF0419BF},,,,
-71.131447999948662,42.355942999661679,262,1113,1113,Cambridge St @ Linden St,,42.355943,-71.131448,,,0,,0,{EA2072D6-D1DC-43DC-8F5D-833BCA2033F5},,,,
-71.111931999432926,42.31899300052477,263,11131,11131,Centre St @ Roseway St,,42.318993,-71.111932,,,0,,0,{CD611662-1C54-4B8D-808E-D1C4B1D6A7F0},,,,
-71.126505000881366,42.357757999575362,264,1114,1114,Cambridge St @ N Harvard St,,42.357758,-71.126505,,,0,,0,{271B36D1-51E0-4828-AE70-1D5580B27638},,,,
-71.090587999688921,42.331221000596123,265,11148,11148,Malcolm X Blvd @ Madison Park HS,,42.331221,-71.090588,,,0,,0,{F7B9818D-B7D9-42CE-9D00-24C076B553A8},,,,
-71.088419998606113,42.330731999705691,266,11149,11149,Malcolm X Blvd @ O'Bryant HS,,42.330732,-71.08842,,,0,,0,{723514ED-8675-4E98-BF7D-18D982863CA2},,,,
-71.123967000038675,42.358657999062324,267,1115,1115,Cambridge St @ Seattle St,,42.358658,-71.123967,,,0,,0,{1991AB2E-45EC-45DD-9D6C-2165D471A60B},,,,
-71.070916999856365,42.338392999138172,268,11158,11158,Harrison Ave @ E Brookline St,,42.338393,-71.070917,,,0,,0,{168BF7B3-E9DE-44C3-A64B-3D421CE4B72F},,,,
-71.118543999108482,42.360639999619814,269,1116,1116,Cambridge St @ Mass Pike Exit,,42.36064,-71.118544,,,0,,0,{C03373C2-CD39-465D-B2E9-4E5C457B98DB},,,,
-71.114499999253169,42.311466000179962,270,11164,11164,Centre St @ Burroughs St,,42.311466,-71.1145,,,0,,0,{302B7B67-B89B-467B-AB9D-1C853D01BDD7},,,,
-71.148313999938622,42.139820000289475,271,111640,111640,"Cobbs Corner, Canton",,42.13982,-71.148314,,,0,,0,{A7D2F46B-7EE1-4CD7-88F5-470441FEB951},,,,
-71.149085000008569,42.144333000476259,272,111642,111642,Washington St from Cobbs Corner to High St (FLAG),,42.144333,-71.149085,,,0,,0,{BE139E34-02AF-4A9F-AA07-AA2D38C4B309},,,,
-71.149245000360267,42.150599000343647,273,111648,111648,Washington St from High St to Church St (FLAG),,42.150599,-71.149245,,,0,,0,{89E264FB-3E1B-429C-88A0-0FF1F990E4FA},,,,
-71.14568899892933,42.154215000091703,274,111653,111653,Washington St - Church St to Canton Ctr Sta (FLAG),,42.154215,-71.145689,,,0,,0,{69BC9ECC-FD66-433D-898C-B5054C5DCFB0},,,,
-71.145461999408639,42.156617000544337,275,111656,111656,Washington St opp Canton Center Station,,42.156617,-71.145462,,,0,,0,{5F785115-DEAC-4475-B63D-9DEE1D790140},,,,
-71.14491800006661,42.158793999910785,276,111660,111660,Washington St - Canton Ctr Sta to Pequit St (FLAG),,42.158794,-71.144918,,,0,,0,{25AFAC6C-048F-457D-BAE9-49C739C421FD},,,,
-71.142639999865196,42.165506999843117,277,111667,111667,Washington St from Pequit St to Chapman St (FLAG),,42.165507,-71.14264,,,0,,0,{9149C4FC-BC40-4611-A756-4ED1B3E937C7},,,,
-71.139198999041213,42.172307,278,111672,111672,Washington St - Chapman St to Pleasant St (FLAG),,42.172307,-71.139199,,,0,,0,{98341ADD-1E40-4639-A115-01339FBBB37D},,,,
-71.13142800056913,42.176365000983786,279,111678,111678,Washington St - Pleasant St to Pecunit St (FLAG),,42.176365,-71.131428,,,0,,0,{A8C7ACDB-9171-459E-8BA3-8C5446AF4E4D},,,,
-71.121814999365,42.185812999981408,280,111685,111685,Washington St - Pecunit St to Turnpike St (FLAG),,42.185813,-71.121815,,,0,,0,{37E05905-F363-46DE-9727-1814C4F136CA},,,,
-71.119020999368189,42.197114000650338,281,111691,111691,Washington St from Turnpike St to Royall St (FLAG),,42.197114,-71.119021,,,0,,0,{BFEEDBA3-082A-4646-B35C-B46AAB888FA1},,,,
-71.113531998664783,42.36170999957735,282,1117,1117,Putnam Ave @ Allston St,,42.36171,-71.113532,,,0,,0,{E651FDAA-E184-4DEE-B031-D75D40EA294D},,,,
-71.108357000493143,42.2391419999094,283,111705,111705,Blue Hill Ave from Curry Coll to Barbara Ln (FLAG),,42.239142,-71.108357,,,0,,0,{8B73208D-5515-4DDC-AA0C-0DF8B10C91EE},,,,
-71.102039000618447,42.250044000182875,284,111711,111711,Blue Hill Ave - Barbara Ln to Valentine Rd (FLAG),,42.250044,-71.102039,,,0,,0,{67BFABFB-BC75-4792-9F91-243317C875EB},,,,
-71.098789000237204,42.256290000172434,285,111720,111720,Blue Hill Ave - Valentine Rd to Tucker St (FLAG),,42.25629,-71.098789,,,0,,0,{D319A433-0DA4-4E0F-BD70-7843A6C1B058},,,,
-71.095502999482804,42.262626999524862,286,111729,111729,Blue Hill Ave - Tucker St to Brush Hill Rd (FLAG),,42.262627,-71.095503,,,0,,0,{46449A97-31D8-4F8B-B596-F6B5E35AA9F8},,,,
-71.09567699968305,42.262865999735233,287,111738,111738,Blue Hill Ave - Brush Hill Rd to Tucker St (FLAG),,42.262866,-71.095677,,,0,,0,{5CF8861A-7178-4849-8DA8-24098FDF520B},,,,
-71.098896000784151,42.25664200051105,288,111747,111747,Blue Hill Ave - Tucker St to Valentine Rd (FLAG),,42.256642,-71.098896,,,0,,0,{A1F6930C-2DAE-4787-97C5-77CE660E7EE4},,,,
-71.102213999082565,42.250283000320948,289,111756,111756,Blue Hill Ave - Valentine Rd to Barbara Ln (FLAG),,42.250283,-71.102214,,,0,,0,{5B85E670-D7F4-47D9-82FF-4472410E08C6},,,,
-71.10850500045224,42.239391000762971,290,111762,111762,Blue Hill Ave from Barbara Ln to Curry Coll (FLAG),,42.239391,-71.108505,,,0,,0,{9DE8ED9C-A1B7-4379-86A9-D7EBAB247727},,,,
-71.119298999625485,42.197153999369498,291,111775,111775,Washington St from Royall St to Turnpike St (FLAG),,42.197154,-71.119299,,,0,,0,{98E8CB87-706A-4C28-8EDD-03E68F57CC6A},,,,
-71.122021999900539,42.185980999222863,292,111781,111781,Washington St - Turnpike St to Pecunit St (FLAG),,42.185981,-71.122022,,,0,,0,{D227E760-7682-409A-B43C-C2FBCDA42F3C},,,,
-71.131430001256703,42.176598000211385,293,111787,111787,Washington St - Pecunit St to Pleasant St (FLAG),,42.176598,-71.13143,,,0,,0,{D097863A-57E2-48BD-8BB4-EF93845C1A62},,,,
-71.139084999323074,42.17252599995291,294,111791,111791,Washington St - Pleasant St to Chapman St (FLAG),,42.172526,-71.139085,,,0,,0,{351CBAC9-6761-4A3A-92BE-971BCFA61AB7},,,,
-71.142812999525816,42.165613999715482,295,111796,111796,Washington St from Chapman St to Lewis St (FLAG),,42.165614,-71.142813,,,0,,0,{C4D106F4-F4EE-4764-989B-0F2F4C489BD7},,,,
-71.110889999282165,42.359195999640498,296,1118,1118,Magazine St @ Putnam Ave,,42.359196,-71.11089,,,0,,0,{4B9191A5-FB21-4E4B-8AD2-78F2FF0ADD6F},,,,
-71.145005999840734,42.159019000666618,297,111801,111801,Washington St - Lewis St to Canton Ctr sta (FLAG),,42.159019,-71.145006,,,0,,0,{607366E3-B097-4AFD-8E53-F5ED7FC339C7},,,,
-71.145660999125766,42.156684999622911,298,111803,111803,Washington St @ Canton Center Station,,42.156685,-71.145661,,,0,,0,{98847060-A8C5-46B6-87AA-D884C5EAF57E},,,,
-71.145862000171689,42.15432599912269,299,111806,111806,Washington St - Canton Ctr Sta to Church St (FLAG),,42.154326,-71.145862,,,0,,0,{15203257-00E9-454F-AEC6-1408D4E9D84C},,,,
-71.149383999967682,42.150784000568869,300,111810,111810,Washington St from Church St to High St (FLAG),,42.150784,-71.149384,,,0,,0,{67087122-9364-47D0-AFD1-229B9678C027},,,,
-71.149280999830083,42.144230000732797,301,111815,111815,Washington St from High St to Cobbs Corner (FLAG),,42.14423,-71.149281,,,0,,0,{CC096121-01BD-4582-916C-0FD901ED5DA6},,,,
-70.865572000309939,42.250215999584164,302,111818,111818,Rockland St from Summer St to Kilby St (FLAG),,42.250216,-70.865572,,,0,,0,{DB75324C-F6DB-46B6-B0B6-4B37CD19AD8E},,,,
-70.85181200123796,42.255328999929816,303,111823,111823,Rockland St from Kilby St to Nantasket Ave (FLAG),,42.255329,-70.851812,,,0,,0,{98C3DA1E-62EE-42E0-8850-9AE36AD7E7B0},,,,
-70.844835000507729,42.261631999502214,304,111826,111826,Nantasket Ave from Rockland St to School St (FLAG),,42.261632,-70.844835,,,0,,0,{626727C6-45BE-4ADB-B755-257300155544},,,,
-70.845936000164755,42.264125000394905,305,111828,111828,School St - Nantasket Ave to Atlantic Ave (FLAG),,42.264125,-70.845936,,,0,,0,{A1898DC1-B02B-45FD-8511-2522CCAC308E},,,,
-70.846620000744537,42.265652999846999,306,111830,111830,Atlantic Ave - School St to Nantasket Ave (FLAG),,42.265653,-70.84662,,,0,,0,{540553BB-5556-450E-B619-E43B22FBEB82},,,,
-70.852601000400426,42.265932000800753,307,111834,111834,Rockland House Rd - Nantasket Ave to Wash Blvd,,42.265932,-70.852601,,,0,,0,{EB252ACB-B5E2-46A9-A723-0488421A0BE3},,,,
-70.853777000840111,42.266351999502284,308,111842,111842,Rockland Circle from Rockland House to Park (FLAG),,42.266352,-70.853777,,,0,,0,{1D5BCDCD-5586-42C4-97BA-11BA16493448},,,,
-70.85314800065764,42.267533000517048,309,111843,111843,Park Ave from Rockland Cir to Nantasket Ave (FLAG),,42.267533,-70.853148,,,0,,0,{EAEEA889-B33F-4FC0-AF9D-0B03B93E6402},,,,
-70.856587999770397,42.270664999660553,310,111844,111844,Nantasket Ave from Park Ave to Wash Blvd (FLAG),,42.270665,-70.856588,,,0,,0,{6363B28D-FF29-43A7-96E2-F7C694102D7D},,,,
-70.86068699909346,42.274431000518412,311,111848,111848,Nantasket Ave from Wash Blvd to Water St (FLAG),,42.274431,-70.860687,,,0,,0,{65A4B320-B600-445A-8C8F-F63B35F6345B},,,,
-70.869545000554851,42.27949600033871,312,111855,111855,Nantasket Ave from Water St to Kenberma St (FLAG),,42.279496,-70.869545,,,0,,0,{303744B6-1F8E-4BF3-97A9-19B839EB81A0},,,,
-70.876467999639104,42.287263999843454,313,111864,111864,Nantasket Ave from Kenburma St to A St (FLAG),,42.287264,-70.876468,,,0,,0,{068D880D-7B67-48F1-A548-657A3B395FB5},,,,
-71.099461999073981,42.314696999907142,314,11187,11187,Washington St @ School St,,42.314697,-71.099462,,,0,,0,{9BA99557-C91C-4F8D-A01E-0BDA2DF4A554},,,,
-70.881952998728025,42.298480000019218,315,111881,111881,Nantasket Ave from A St to Y St (FLAG),,42.29848,-70.881953,,,0,,0,{FB5C0F00-1D59-4CD0-A360-4F8A75771582},,,,
-70.889695999414684,42.308765000221925,316,111895,111895,Nantasket Ave from Y St to Spring St (FLAG),,42.308765,-70.889696,,,0,,0,{53D56756-AC04-4757-A091-F120AB84CBB1},,,,
-71.108910999602273,42.360977999105792,317,1119,1119,Magazine St @ Erie St,,42.360978,-71.108911,,,0,,0,{2C94CA35-26E4-4C4B-B8DF-4F470392529A},,,,
-70.902506000335237,42.30310800034033,318,111900,111900,Spring St from Nantasket Ave to Main St (FLAG),,42.303108,-70.902506,,,0,,0,{C224E354-DA86-4C4A-B526-E187164AB420},,,,
-70.913071999429263,42.303557000394377,319,111907,111907,Main St from Spring St to Pemberton Pnt (FLAG),,42.303557,-70.913072,,,0,,0,{A99130BC-8BED-45D5-A851-E11A29419DBF},,,,
-71.088597999085067,42.438144000178482,320,111997,111997,Highland Ave @ Doonan St (FLAG),,42.438144,-71.088598,,,0,,0,{B6C4C164-8096-4E22-8095-6F86C00784E8},,,,
-71.108367999990875,42.361486999669872,321,1120,1120,Magazine St @ McTernan St,,42.361487,-71.108368,,,0,,0,{67BC6F92-EF66-454F-8A7E-FB432BEF3F9E},,,,
-71.095821999300497,42.436136999901606,322,112011,112011,Fulton St from Molyneaux Cir to Foss St (FLAG),,42.436137,-71.095822,,,0,,0,{6680C95C-06B4-467E-BDA6-E859BEAF5801},,,,
-71.098953000375957,42.428728000745984,323,112019,112019,Fulton St from Foss St to Fellsway (FLAG),,42.428728,-71.098953,,,0,,0,{1C2BDB19-838A-420E-B291-59B7D37F7D99},,,,
-71.104079000600237,42.422586999957851,324,112029,112029,Webster St from Fulton St to Forest St (FLAG),,42.422587,-71.104079,,,0,,0,{2F86A8F6-104E-4C47-8CE7-51DBF1B076A3},,,,
-71.110796999259904,42.426217000276601,325,112037,112037,Lawrence Memorial Hospital,,42.426217,-71.110797,,,0,,0,{5D83958D-94E7-42FE-BEBB-5CA5543F75A2},,,,
-71.108275000848906,42.42089500053406,326,112046,112046,Forest St from Webster St to Medford Sq (FLAG),,42.420895,-71.108275,,,0,,0,{7DD4FDC4-4927-450C-BD5C-C57AA202C555},,,,
-71.10801500086464,42.42101599983063,327,112094,112094,Forest St from Medford Sq to Webster St (FLAG),,42.421016,-71.108015,,,0,,0,{4BD6952C-769C-4068-9E77-554A4BF90BC3},,,,
-71.107445001052838,42.362342999907753,328,1121,1121,Magazine St @ Perry St,,42.362343,-71.107445,,,0,,0,{7A9A638C-E82E-41B6-8F84-8880134A68BA},,,,
-71.104055000764163,42.422467000211235,329,112112,112112,Webster St from Forest St to Fulton St (FLAG),,42.422467,-71.104055,,,0,,0,{5BDEC171-D4A6-4F21-97B1-F752DCC31650},,,,
-71.102062999784167,42.424507000406358,330,112113,112113,Fulton St from Fellsway to Webster St (FLAG),,42.424507,-71.102063,,,0,,0,{7B68EB43-FA44-4A02-86EE-CA25A15BD52D},,,,
-71.101894999619375,42.424483000356034,331,112116,112116,Fulton St from Webster St to Fellsway (FLAG),,42.424483,-71.101895,,,0,,0,{FF56B91C-256D-4CBF-A77E-D97A0CD45CFD},,,,
-71.098715000297148,42.428683999825139,332,112121,112121,Fulton St from Fellsway to Foss St (FLAG),,42.428684,-71.098715,,,0,,0,{78C6DA56-F2DE-4B38-BDC6-451660099442},,,,
-71.095678999956462,42.436059000126889,333,112129,112129,Fulton St from Foss St to Molyneaux Cir (FLAG),,42.436059,-71.095679,,,0,,0,{3F139516-FC31-44A5-8A62-3D61BAEADC76},,,,
-71.107674001278582,42.424893999648567,334,112131,112131,Lawrence Rd from Forest St to Hospital (FLAG),,42.424894,-71.107674,,,0,,0,{C4DD9FE4-0C93-417D-BD11-13235BBC4C1A},,,,
-71.048494000259737,42.350434000316255,335,11218,11218,Congress St @ A St,,42.350434,-71.048494,,,0,,0,{03AFBDE3-59F9-440A-B02B-570888285C3B},,,,
-71.050337999297767,42.348061999883065,336,11219,11219,A St @ Necco St,,42.348062,-71.050338,,,0,,0,{88B13CBC-F133-45CE-9EF1-4BE301FBC426},,,,
-71.107880999439573,42.424787999441378,337,112196,112196,Lawrence Rd from Hospital to Forest St (FLAG),,42.424788,-71.107881,,,0,,0,{CB528CFB-A947-4FD3-B185-18ED5FCE349F},,,,
-71.105733000315752,42.363868000121606,338,1122,1122,Magazine St @ Auburn St,,42.363868,-71.105733,,,0,,0,{2853ABD1-F063-41BC-89AD-E1C3EF8C54FF},,,,
-71.083038001375243,42.337781999544227,339,11228,11228,Tremont St @ Lenox St,,42.337782,-71.083038,,,0,,0,{0058E0B1-07EA-4412-93E7-C3AF9A9A96BA},,,,
-71.104405001518202,42.364934999195846,340,1123,1123,Green St @ Magazine St,,42.364935,-71.104405,,,0,,0,{935C35D7-FA2D-41EE-9C3F-8878BF214A00},,,,
-71.061782998759412,42.3299190006462,341,11241,11241,South Bay Mall @ Target,,42.329919,-71.061783,,,0,,0,{0BD8328D-362E-459D-A92C-3143E39320B1},,,,
-71.061818999124625,42.327477000303922,342,11242,11242,South Bay Mall @ Office Max,,42.327477,-71.061819,,,0,,0,{AB4D49B5-ECDA-44A3-9A0D-7EEA65716752},,,,
-71.064690999368239,42.326421000047823,343,11243,11243,South Bay Mall @ Stop and Shop,,42.326421,-71.064691,,,0,,0,{A532C500-8760-42B8-A507-95B50A95564B},,,,
-71.069799999773579,42.34546600043786,344,11245,11245,Tremont St @ Berkeley St,,42.345466,-71.0698,,,0,,0,{845FC236-E806-495F-B8E3-7F34B14362C3},,,,
-71.106339000855328,42.363492000134244,345,1125,1125,Magazine St @ William St,,42.363492,-71.106339,,,0,,0,{951357DF-663D-4F03-B97C-0CDE79A8382D},,,,
-71.092692000604515,42.33119699979202,346,11257,11257,Malcolm X Blvd @ King St,,42.331197,-71.092692,,,0,,0,{D7EE3A25-3CEB-4A86-8674-D49FA502E5D2},,,,
-71.086202999437674,42.329483000435516,347,11259,11259,Malcolm X Blvd @ Shawmut Ave,,42.329483,-71.086203,,,0,,0,{6F4B580E-4AB5-4ED9-A6B3-B254D927D9CB},,,,
-71.115486999554875,42.308587999445137,348,1128,1128,South St @ Sedgwick St,,42.308588,-71.115487,,,0,,0,{6A6B7C1E-CCB5-4BEC-A9BA-8EEBE590FE11},,,,
-71.114143999218072,42.312198000394524,349,1129,1129,Centre St @ Seaverns Ave,,42.312198,-71.114144,,,0,,0,{1A2BB5FF-B4A7-4CA5-BA3E-7698392D5269},,,,
-71.061289999207077,42.365577000395511,350,113,113,Portland St @ Causeway St,,42.365577,-71.06129,,,0,place-north,0,{EE0A4E94-8CBF-4D11-99ED-377ED1B1A5B0},,,,
-71.11403599946965,42.314197000635403,351,1130,1130,Centre St @ Saint John St,,42.314197,-71.114036,,,0,,0,{F4EDD34C-D6D3-4646-8008-4838B53FDC26},,,,
-71.129539000015114,42.348388000311424,352,11302,11302,Harvard St @ Verndale St,,42.348388,-71.129539,,,0,,0,{ECCDADE9-4A7C-41F9-81D5-8C6373599F73},,,,
-71.055037999575717,42.343047000001604,353,11319,11319,W Second St opp W Third St,,42.343047,-71.055038,,,0,,0,{6AC67E40-DADF-4E87-A4D3-D1574AFB6D7D},,,,
-71.113367999907211,42.31695100000433,354,1132,1132,Centre St @ Robinwood Ave,,42.316951,-71.113368,,,0,,0,{1F2B2E5C-9019-4731-BF06-652B089BAA3B},,,,
-71.089206999918048,42.330801000379246,355,11323,11323,Malcolm X Blvd opp O'Bryant HS,,42.330801,-71.089207,,,0,,0,{474D1F09-9974-4143-B5B8-20E0A6436C7E},,,,
-71.11054899971937,42.320853999065136,356,1134,1134,Centre St @ Paul Gore St,,42.320854,-71.110549,,,0,,0,{F6B13455-432E-4F70-993B-CFB72A91EFB7},,,,
-71.10904000067174,42.322163999994991,357,1135,1135,Centre St @ Sheridan St,,42.322164,-71.10904,,,0,,0,{7964F1EF-B30F-4EC6-AF9C-F1E346558619},,,,
-71.106966999676075,42.322458000411999,358,1136,1136,Centre St @ Wyman St,,42.322458,-71.106967,,,0,,0,{AB30A0AB-99D5-49E9-871B-B0128F600B12},,,,
-71.104662000459683,42.322683999407403,359,1137,1137,Centre St @ Mozart St,,42.322684,-71.104662,,,0,,0,{0356DD5B-5BB4-4C71-8841-0C3F4600CEB3},,,,
-71.10297899965876,42.322855999991305,360,1138,1138,Centre St @ Estrella St,,42.322856,-71.102979,,,0,,0,{7FC9233B-7655-4A0F-A7C5-E95C9E727155},,,,
-71.075956001180572,42.347345999498984,361,11384,11384,Dartmouth St @ Back Bay Sta,,42.347346,-71.075956,,,0,,0,{C9B017F9-1E82-4AB3-994C-6AAE2631C1F4},,,,
-71.082045001393865,42.345343999043898,362,11388,11388,Huntington Ave @ Belvidere St,,42.345344,-71.082045,,,0,,0,{A21C4E40-9451-454F-B858-FB56904F6068},,,,
-71.044237000385507,42.318447999514596,363,1139,1139,Mt Vernon St opp Harbor Point Blvd,,42.318448,-71.044237,,,0,,0,{C0EB89A3-2010-4DC7-8B4D-F61B0034C113},,,,
-71.085475998989864,42.347778999858065,364,11390,11390,Dalton St @ Boylston St,,42.347779,-71.085476,,,0,,0,{2AE5F137-C4A1-495A-8E91-7315013BBE5C},,,,
-71.087494999511961,42.347385999940016,365,11391,11391,Boylston St @ Massachusetts Ave,,42.347386,-71.087495,,,0,,0,{13772909-864F-4EDD-81E0-F77E0E0AFD1A},,,,
-71.061289999207077,42.365577000395511,366,114,114,Causeway St @ North Station,,42.365577,-71.06129,,,0,place-north,0,{FF49C3CE-882C-4C7E-BFB1-296BC01EE2B6},,,,
-71.097570999534739,42.324790999512224,367,1140,1140,Centre St @ Highland St,,42.324791,-71.097571,,,0,,0,{BD1B4E33-2B5C-47AA-B7EE-A2134DC769A1},,,,
-71.096534000392708,42.326102000462413,368,1141,1141,Centre St @ Marcella St,,42.326102,-71.096534,,,0,,0,{1031646A-A0B7-4845-B652-B258F8E06E86},,,,
-71.087532000040056,42.371928000819388,369,11410,11410,Cambridge St @ Max Ave,,42.371928,-71.087532,,,0,,0,{39FC4A8E-1C81-4120-B23F-8348305E6C59},,,,
-71.095325999514642,42.313283000691975,370,11413,11413,Columbus Ave @ Walnut Ave,,42.313283,-71.095326,,,0,,0,{54F6799D-A2D0-46BC-824D-B7531E239E68},,,,
-71.051618000578429,42.346440000696695,371,11419,11419,A St @ Mt Washington Ave,,42.34644,-71.051618,,,0,,0,{BB255FA4-F6FE-4A9C-B381-CE0EAC18739F},,,,
-71.095517999861997,42.327778000640777,372,1142,1142,Centre St @ Cedar St,,42.327778,-71.095518,,,0,,0,{84277A12-DD7F-40D1-A331-26F2B6CDD22A},,,,
-71.094997999403063,42.328573999753232,373,1143,1143,Centre St @ Linwood St,,42.328574,-71.094998,,,0,,0,{9382B757-7F6D-4A3A-B55A-00772223A997},,,,
-71.093031999670842,42.329657000028163,374,1144,1144,Centre St @ Highland Ave,,42.329657,-71.093032,,,0,,0,{3C39AB89-1E24-457C-822D-615A746F745A},,,,
-71.091546998481107,42.329962000294927,375,1145,1145,42A John Eliot Sq,,42.329962,-71.091547,,,0,,0,{1B82DCD8-255B-4A13-B3CF-A9C3069F29EF},,,,
-71.089127999115192,42.329396000078489,376,1146,1146,42 Dudley St,,42.329396,-71.089128,,,0,,0,{5EBF84F0-BE0E-4D75-B990-E81ACAC206DA},,,,
-71.086205999680956,42.328969000074821,377,1147,1147,Dudley St @ Shawmut Ave,,42.328969,-71.086206,,,0,,0,{0578B835-91E2-4FCF-814C-ED8EB639FC17},,,,
-71.086129999790742,42.329687000025338,378,1148,1148,Malcolm X Blvd @ Shawmut Ave,,42.329687,-71.08613,,,0,,0,{A4807305-A559-45A7-89F5-A0CFD16003B5},,,,
-71.063361000306102,42.346300999755705,379,11481,11481,Herald St @ Harrison Ave,,42.346301,-71.063361,,,0,,0,{8EC70536-6A9C-46DC-A009-D3E2C6261900},,,,
-71.069142000330274,42.318782999726352,380,11482,11482,Dudley St @ Clifton St,,42.318783,-71.069142,,,0,,0,{C9B992CD-C13B-4DF4-B95C-0FA8B2577CD4},,,,
-70.851408000594319,42.267545000337236,381,114878,114878,Nantasket Ave from Atlantic Ave to Park Ave (FLAG),,42.267545,-70.851408,,,0,,0,{53C8A2EA-9767-45E5-8DC8-8EBA91CE7899},,,,
-70.851698999851322,42.267523999763569,382,114882,114882,Nantasket Ave from Park Ave to Atlantic Ave (FLAG),,42.267524,-70.851699,,,0,,0,{510FAC0C-ACAF-4A07-8687-F7E3E7F9A853},,,,
-70.862243999894645,42.260865999280561,383,114886,114886,Wash Blvd from Rockland St to Hull Med Ctr (FLAG),,42.260866,-70.862244,,,0,,0,{B9FB4B1D-9D06-468C-AA05-0386470B2003},,,,
-70.859478999240423,42.263218000401572,384,114887,114887,Wash Blvd Opp Hull Medical Ctr (FLAG),,42.263218,-70.859479,,,0,,0,{1B1D7FC8-DA40-4EAF-AE01-1400DD79C323},,,,
-70.857123999170582,42.270225999969419,385,114888,114888,Wash Blvd - Rockland House Rd to Nantasket Ave,,42.270226,-70.857124,,,0,,0,{A01BA847-AD94-4289-AE51-FD6034D172E1},,,,
-70.857408999834618,42.270275000589706,386,114893,114893,Wash Blvd - Nantasket Ave to Rockland House Rd,,42.270275,-70.857409,,,0,,0,{B0D95507-C882-4C7A-B8D7-6F541D22FB57},,,,
-70.859975999957328,42.263215999463604,387,114895,114895,Hull Medical Center (FLAG),,42.263216,-70.859976,,,0,,0,{691B6832-3C91-4CE9-ABB4-829750831BE8},,,,
-70.862253999497995,42.261079999024837,388,114896,114896,Wash Blvd from Hull Med Ctr to Rockland St (FLAG),,42.26108,-70.862254,,,0,,0,{32583026-2277-4949-B208-0C07DA8F4AF1},,,,
-71.091342998611395,42.330096000830935,389,1149,1149,205 Roxbury St,,42.330096,-71.091343,,,0,,0,{FB8A604F-F0FC-4869-82B8-4CA539659E03},,,,
-71.046815000084422,42.353418000411381,390,115,115,Northern Ave @ Federal Courthouse,,42.353418,-71.046815,,,0,,0,{7BA8D61E-B0A0-4C18-B6B2-77C5C934BB44},,,,
-71.094098999636955,42.329385999764696,391,1150,1150,Centre St @ Gardner St,,42.329386,-71.094099,,,0,,0,{4C5D0160-D8F2-4805-9853-13589363FFED},,,,
-71.066499000833602,42.317584999562932,392,11501,11501,Dudley St @ Virginia St,,42.317585,-71.066499,,,0,,0,{E2E716BF-2F47-4A8E-8D66-A5E86F607EA8},,,,
-71.095811999968902,42.327547999234341,393,1151,1151,Centre St @ Cedar St,,42.327548,-71.095812,,,0,,0,{9747675C-151B-45F8-A399-9B13A69F2494},,,,
-71.066003999285812,42.307217999197704,394,11512,11512,Bowdoin opp Mt Ida,,42.307218,-71.066004,,,0,,0,{4DA74C0F-8925-4F7D-BF2B-F92D270E3B97},,,,
-71.096664999682417,42.326053000143162,395,1152,1152,Centre St @ New Heath St,,42.326053,-71.096665,,,0,,0,{90D4C9AA-2B51-4888-96F2-1E95C4AFAA87},,,,
-71.106422000724692,42.300135999631536,396,11521,11521,131 Morton St,,42.300136,-71.106422,,,0,,0,{FA0D1B70-EDAA-4FBF-8512-E2DE8269AE06},,,,
-71.098109998911056,42.324916999894988,397,1153,1153,Centre St @ Columbus Ave,,42.324917,-71.09811,,,0,,0,{DB7EED4F-6137-473A-94AC-DAFF1FB668EC},,,,
-71.099591999834118,42.323131999818131,398,11531,11531,Jackson Sq Station @ Orange Line,,42.323132,-71.099592,,,0,place-jaksn,0,{741ACFB1-EBBD-46A7-9D48-FF4BC58B0FAE},,,,
-71.052303000966447,42.339673000246222,399,11532,11532,W Broadway @ Linsky Barry Ct,,42.339673,-71.052303,,,0,,0,{5E1FD592-370F-4FBB-9A38-D594E491C2FC},,,,
-71.09957900096245,42.325365999594872,400,1154,1154,Heath St @ Bromley St,,42.325366,-71.099579,,,0,,0,{4400A608-3A6A-4CF8-94C1-9945AC5E042B},,,,
-71.140475998800923,42.325809000198625,401,11545,11545,Lee St @ Boylston St,,42.325809,-71.140476,,,0,,0,{9EE50204-1F16-4CC0-BE3F-A814A74EDB78},,,,
-71.102274999855652,42.32294999944088,402,1155,1155,Centre St @ Bickford St,,42.32295,-71.102275,,,0,,0,{5D564576-C073-4D76-A648-DBA2BFA57522},,,,
-71.105716001007949,42.3226760003813,403,1156,1156,Centre St @ Sunnyside St,,42.322676,-71.105716,,,0,,0,{6E9DF814-FA07-4E15-B98A-B2A12D6072A0},,,,
-71.108661000272562,42.322367999446818,404,1158,1158,Centre St @ Creighton St,,42.322368,-71.108661,,,0,,0,{BEAA6357-C251-4FBF-B3BA-E863FFAF32A1},,,,
-71.094724998770786,42.305235999184667,405,11587,11587,Circuit Dr @ Glen Ln,,42.305236,-71.094725,,,0,,0,{46C7C25D-D37C-492B-AD72-9B9C792A16D0},,,,
-71.110543999628703,42.321093000338251,406,1159,1159,Centre St @ Barbara St,,42.321093,-71.110544,,,0,,0,{CE14F96F-DD3D-42BD-AC4B-E46C401CBB3D},,,,
-71.087172999842196,42.333862000283474,407,11592,11592,Ruggles St @ Cabot St,,42.333862,-71.087173,,,0,,0,{5EB9A607-5EA2-481D-89DB-C223E64E9C6E},,,,
-71.086015999345008,42.333186000606069,408,11593,11593,Ruggles St opp Kerr Way,,42.333186,-71.086016,,,0,,0,{5A76C294-A1B2-4C61-B3BF-A875BF6726D4},,,,
-71.111728998325134,42.319617998836613,409,1160,1160,S Huntington Ave @ Moraine St,,42.319618,-71.111729,,,0,,0,{13D394EB-2A42-406D-9C18-F39B68BDFD82},,,,
-71.111338000178108,42.320085999547771,410,11609,11609,Centre St @ S Huntington Ave,,42.320086,-71.111338,,,0,,0,{A81AB291-CECB-4E87-9F90-F9192EAE3EC9},,,,
-71.113228999811668,42.317364999230442,411,1161,1161,Centre St @ Lochstead Ave,,42.317365,-71.113229,,,0,,0,{8A21A20E-7069-4DFB-A827-4D9AA20EDAF2},,,,
-71.149988999901112,42.267431999967705,412,11613,11613,W Boundary Rd @ Washington St,,42.267432,-71.149989,,,0,,0,{D0A2B986-EF30-4353-AB81-017EC3721F5F},,,,
-71.143709000749595,42.255640000883083,413,11618,11618,Georgetowne Dr @ Georgetowne Pl,,42.25564,-71.143709,,,0,,0,{CE59E8DD-529D-4A80-9FFA-BF70C8D40F66},,,,
-71.114160000081682,42.313306000601919,414,1164,1164,Centre St @ Myrtle St,,42.313306,-71.11416,,,0,,0,{A2AFD32C-DDE6-4F86-8C78-7C2C33FD203C},,,,
-71.097562999520918,42.316445999960116,415,1165,1165,Washington St @ W Walnut Pk,,42.316446,-71.097563,,,0,,0,{2FEAACB7-107C-41D1-9258-5C287CB89CFB},,,,
-71.096448999924675,42.317578999634883,416,1166,1166,Washington St @ Cobden St,,42.317579,-71.096449,,,0,,0,{430B2A2C-4383-4D6D-91CA-11A38BF1A454},,,,
-71.095138999690761,42.318898998875575,417,1167,1167,Washington St opp Dimock St,,42.318899,-71.095139,,,0,,0,{07365530-A878-40DB-89CE-48302AD1E803},,,,
-71.157950000877349,42.452997000009631,418,11673,11673,209 Cambridge St,,42.452997,-71.15795,,,0,,0,{3927AC1E-3E6F-4BDC-8FCB-2458AE75BE69},,,,
-71.094067000418178,42.319957999768278,419,1168,1168,Washington St @ Townsend St,,42.319958,-71.094067,,,0,,0,{EEDD0B4C-3DC1-4D0A-AB49-4DBF202023AB},,,,
-71.211727998380127,42.485918999808128,420,11689,11689,Burlington Mall Rd opp NE Executive Pk,,42.485919,-71.211728,,,0,,0,{E046411D-EC4A-4A9C-BD3B-CFE01833CCB6},,,,
-71.092973999470132,42.320828999993466,421,1169,1169,Washington St @ Brinton St,,42.320829,-71.092974,,,0,,0,{B9851495-020A-48AF-B91F-DCD6CC127CB1},,,,
-71.194920000528967,42.484199000593556,422,11694,11694,S Bedford St @ Wayside Rd,,42.484199,-71.19492,,,0,,0,{BE941716-8A0B-425D-A05B-140207F1F36F},,,,
-71.057723999955883,42.361847000367625,423,117,117,Congress St @ Haymarket Sta,,42.361847,-71.057724,,,0,,0,{21F20AF0-C45B-49AA-9EDC-FD4CDAF2303E},,,,
-71.091751999293209,42.321748999834931,424,1170,1170,Washington St @ ML King Blvd,,42.321749,-71.091752,,,0,,0,{D1821F9C-917F-48ED-B7DE-2FB47BC1818A},,,,
-71.091673999957393,42.284142999632166,425,11712,11712,Blue Hill Ave @ Morton St,,42.284143,-71.091674,,,0,,0,{2601E50E-38CF-45E0-8476-41876BBC62D9},,,,
-71.093906999881099,42.270168000263723,426,11719,11719,Blue Hill Ave opp Babson St,,42.270168,-71.093907,,,0,,0,{3CB38392-6F58-46B0-B568-8ACD162ADCC7},,,,
-71.089572999639429,42.323294000230703,427,1172,1172,Washington St @ Dale St,,42.323294,-71.089573,,,0,,0,{40FAA500-5A71-479C-A9A2-80967E126DDB},,,,
-71.088807999943626,42.324102000341355,428,1173,1173,Washington St opp Cedar St,,42.324102,-71.088808,,,0,,0,{0B65AC12-0D8B-41C2-9E1B-B31D8CB158DA},,,,
-71.082688999725065,42.290104000505025,429,11735,11735,Ames St @ Franklin Field,,42.290104,-71.082689,,,0,,0,{42F942FC-2C72-44FE-B7E5-AA8D2FAAE00E},,,,
-71.086388999078849,42.290612000898108,430,11736,11736,Ames St @ Westview St,,42.290612,-71.086389,,,0,,0,{281FCD07-A7D1-481C-B487-A3B0CBDB017F},,,,
-71.087772000617292,42.325826999254097,431,1174,1174,Washington St @ Circuit Terr,,42.325827,-71.087772,,,0,,0,{BCAB7307-087E-4ECD-82C6-102976AF390A},,,,
-71.087148999667349,42.327275999407092,432,1175,1175,Washington St @ St James St,,42.327276,-71.087149,,,0,,0,{7FDA10F3-CF20-41FE-9B8C-1580E6F9A919},,,,
-71.094814999537448,42.36023000023512,433,11771,11771,Vassar St @ Massachusetts Ave,,42.36023,-71.094815,,,0,,0,{7892AB38-667E-498D-AC21-E6A5D3BE3AA6},,,,
-71.0871239986121,42.327637999479364,434,1178,1178,Washington St @ Bartlett St,,42.327638,-71.087124,,,0,,0,{590A46E8-DB69-49DE-BB96-8056B3F88AD9},,,,
-71.102234000395185,42.338442999266036,435,11780,11780,Ave Louis Pasteur @ Longwood Ave,,42.338443,-71.102234,,,0,,0,{AFCC3A04-59AD-496E-A9A1-3B4F4DB820BF},,,,
-71.10083900058946,42.340233000020568,436,11781,11781,Ave Louis Pasteur @ The Fenway,,42.340233,-71.100839,,,0,,0,{694E5908-15AE-4C90-912E-3DF31691BF57},,,,
-71.08781199837351,42.326034999488421,437,1179,1179,Washington St @ Guild St,,42.326035,-71.087812,,,0,,0,{BD3E8EDA-947A-4F34-B5B6-3FD70BED5D62},,,,
-71.07929299952329,42.332146000093545,438,11792,11792,Harrison Ave @ Melnea Cass Blvd,,42.332146,-71.079293,,,0,,0,{05403763-F98F-4E04-A69E-D551A2BDE7DB},,,,
-71.100979000266733,42.340273999997272,439,11799,11799,Ave Louis Pasteur @ The Fenway,,42.340274,-71.100979,,,0,,0,{9C414A8E-002D-4577-A8CB-DEF2353ABFCE},,,,
-71.059490999114303,42.366282999182474,440,118,118,Causeway St @ Medford St,,42.366283,-71.059491,,,0,,0,{3DE52428-7905-4254-BFCA-505B408655D5},,,,
-71.088772999198824,42.324306999699559,441,1180,1180,Washington St @ Cedar St,,42.324307,-71.088773,,,0,,0,{6E1241C4-64EC-41E5-9892-AD709DAFB640},,,,
-71.102343999986886,42.338486999459349,442,11802,11802,Ave Louis Pasteur @ Longwood Ave,,42.338487,-71.102344,,,0,,0,{B0FA6444-F23C-42CD-8606-5A8DD61AF668},,,,
-71.105937000405646,42.338197999553884,443,11803,11803,Longwood Ave @ Binney St,,42.338198,-71.105937,,,0,,0,{2EC5DE46-0783-4856-B657-7620A515492B},,,,
-71.108581001137793,42.348846000373136,444,11809,11809,Mountfort St @ Carlton St,,42.348846,-71.108581,,,0,,0,{16DA7B58-94D0-4E12-B793-447D2BD1F8A9},,,,
-71.08959999924879,42.323461999397189,445,1181,1181,Washington St @ Oakland St,,42.323462,-71.0896,,,0,,0,{8D50613A-8789-40A8-933E-AA3E4C14C2C4},,,,
-71.091899000308132,42.321772000178122,446,1182,1182,Washington St @ Valentine St,,42.321772,-71.091899,,,0,,0,{D5B540BF-ABF5-4EAD-ABD8-D1828F2D5EAD},,,,
-71.093122000585083,42.320850999754605,447,1183,1183,Washington St @ Marcella St,,42.320851,-71.093122,,,0,,0,{2471F0DF-99FB-4A5B-BE7C-7BB737CF7B36},,,,
-71.146793001013322,42.33231500089461,448,11835,11835,Chestnut Hill Ave opp Buckminster Rd,,42.332315,-71.146793,,,0,,0,{BA69FE1E-0EA5-4B53-85BA-CDE9CDE81177},,,,
-71.150105000497874,42.304466999399253,449,11836,11836,145 Grove St opp Bellingham Rd,,42.304467,-71.150105,,,0,,0,{843CC25C-9544-4511-A445-E6E6DE0220DD},,,,
-71.152249000573704,42.302637999455769,450,11837,11837,Grove St @ South St,,42.302638,-71.152249,,,0,,0,{C7A84239-98F5-4DF2-9FF3-28C893352004},,,,
-71.169857000482224,42.300386000378239,451,11839,11839,Corey St @ LaGrange St,,42.300386,-71.169857,,,0,,0,{6A7002F9-0909-43F7-8B12-361443F1CC82},,,,
-71.094005999957133,42.320154999069729,452,1184,1184,Washington St opp Townsend St,,42.320155,-71.094006,,,0,,0,{8B9A16D0-9FCE-482C-957D-378C9B00F09E},,,,
-71.146010999924286,42.329972000331878,453,11845,11845,Chestnut Hill Ave @ Ackers Ave,,42.329972,-71.146011,,,0,,0,{7F9D3EFF-6C10-4724-ADDE-0F80FEF818AC},,,,
-71.095290000941048,42.318907999526317,454,1185,1185,Washington St @ Dimock St,,42.318908,-71.09529,,,0,,0,{CCBF1B75-D82D-48C6-94B4-893E11799218},,,,
-71.237377001442184,42.277022999622652,455,11853,11853,Chestnut St opp Oak St,,42.277023,-71.237377,,,0,,0,{A679B415-D14F-4ECA-8A7E-84492474BBDB},,,,
-71.096775000052759,42.317414999733209,456,1186,1186,Washington St @ Bragdon St,,42.317415,-71.096775,,,0,,0,{62F80CE3-20C6-410C-A046-8ED7E5F05952},,,,
-71.131105999897116,42.286760000104373,457,11860,11860,Robert St @ Belgrade Ave,,42.28676,-71.131106,,,0,,0,{AFC63608-5927-4AED-87CB-8989DA43ED0D},,,,
-71.133832001028935,42.289151000374957,458,11868,11868,5 Walter St opp Hewlett St,,42.289151,-71.133832,,,0,,0,{555C41D0-CF57-44E8-AE88-99290469A4EB},,,,
-71.097858000690323,42.31629900127183,459,1187,1187,Washington St @ Columbus Ave,,42.316299,-71.097858,,,0,,0,{4D1C3491-005F-4A22-A542-836C693E6869},,,,
-71.097816000864711,42.315394000743488,460,1188,1188,1990 Columbus Ave,,42.315394,-71.097816,,,0,,0,{F05A35A9-9BB0-49AD-86C3-DE9383BCE9D5},,,,
-71.118664999734605,42.360808000087481,461,1189,1189,Cambridge St @ Mass Pike,,42.360808,-71.118665,,,0,,0,{C1CCC057-A283-4146-816D-FC772D74668C},,,,
-71.05625100000816,42.357494999754337,462,11891,11891,Pearl St @ Congress St,,42.357495,-71.056251,,,0,,0,{051A0445-CD06-4D68-B83D-0A3A276B0BA6},,,,
-71.123853000472224,42.358890000102335,463,1190,1190,Cambridge St @ Seattle St,,42.35889,-71.123853,,,0,,0,{B5892A81-D264-4C52-AB7C-59D23FB1C17B},,,,
-71.128044999309139,42.357457999149005,464,1191,1191,Cambridge St @ Lincoln St,,42.357458,-71.128045,,,0,,0,{8B41F032-AC7A-4B17-BE05-06443275E895},,,,
-71.146718999883589,42.332414000907917,465,11917,11917,Chestnut Hill Ave @ Buckminster Rd,,42.332414,-71.146719,,,0,,0,{F895637E-8172-4E12-B71D-34FF6054021D},,,,
-71.132875001255726,42.355550999531346,466,1193,1193,Cambridge St @ Franklin St,,42.355551,-71.132875,,,0,,0,{A55B47B6-E871-44A5-BD7A-364A19AF00AC},,,,
-71.115763999798986,42.309651000384541,467,11939,11939,Centre St @ Eliot St,,42.309651,-71.115764,,,0,,0,{9C4922E4-5EFE-4631-925A-9C29ECC1B329},,,,
-71.135845998778208,42.35427800042774,468,1195,1195,Cambridge St @ Emery Rd,,42.354278,-71.135846,,,0,,0,{155FE871-9E42-4E93-9214-D3CAD3EEA58D},,,,
-71.138127999271177,42.353747999800191,469,1196,1196,N Beacon St @ Cambridge St,,42.353748,-71.138128,,,0,,0,{EC3B31D8-81AB-4729-8CE7-5C5162658D93},,,,
-71.141737998553765,42.354360000177799,470,1197,1197,N Beacon St opp Saunders St,,42.35436,-71.141738,,,0,,0,{4C9A202C-9037-48E1-ACDC-8647F33A3DE7},,,,
-71.1414610007091,42.356306000008765,471,11971,11971,Arthur St @ Guest St - Stop & Shop,,42.356306,-71.141461,,,0,,0,{CBCA18C6-16B0-48E1-882B-E45CED7C2C17},,,,
-71.145622999656538,42.357109000189027,472,11972,11972,Guest St @ Life St,,42.357109,-71.145623,,,0,,0,{3B6AB154-58AA-4087-8400-B4F94D8CDFEA},,,,
-70.970605999526228,42.367208000100916,473,119863,119863,Shirley St @ Winthrop Ferry Terminal,,42.367208,-70.970606,,,0,,0,{8AEA41A2-2EF0-4F7D-B5C0-BB4260C4F507},,,,
-71.146274999768835,42.355509999422502,474,1199,1199,N Beacon St @ Life St,,42.35551,-71.146275,,,0,,0,{1440B875-8721-433A-A492-CCF79135EB59},,,,
-70.97058000058108,42.367336000525469,475,119913,119913,Shirley St opp Winthrop Ferry Terminal,,42.367336,-70.97058,,,0,,0,{5132394A-7F2F-4828-8ACF-F264C4D553AB},,,,
-71.177808000280805,42.27844600077416,476,120,120,Rivermoor St @ Industrial Park,,42.278446,-71.177808,,,0,,0,{63A14B29-D5FE-400A-B4FE-86AEE173C549},,,,
-71.148811000940142,42.356162999474009,477,1200,1200,N Beacon St @ Market St,,42.356163,-71.148811,,,0,,0,{F439FA97-C1A1-462C-8544-760D7CE6055D},,,,
-71.152796000409751,42.357186999812676,478,1202,1202,N Beacon St @ Vineland St,,42.357187,-71.152796,,,0,,0,{F3E28857-EDBF-40CE-8D91-67D306687541},,,,
-71.154393999545292,42.357993999643043,479,1203,1203,N Beacon St @ Birmingham Pkwy,,42.357994,-71.154394,,,0,,0,{ED94CCB9-5E90-4A31-A090-98FA30D766B4},,,,
-71.157969000402531,42.35866299953458,480,1204,1204,Birmingham Pkwy @ Soldiers Field Rd,,42.358663,-71.157969,,,0,,0,{0BDB86B8-E63B-4792-A0D8-BAC800D128E5},,,,
-71.162380000456295,42.355431999174741,481,1206,1206,Hobart St @ Brooks St,,42.355432,-71.16238,,,0,,0,{6768BD6F-E560-4B2C-8C4B-C9F851C0C6E5},,,,
-71.158514000139959,42.354751000479659,482,1208,1208,Hobart St @ Falkland St,,42.354751,-71.158514,,,0,,0,{2A863751-62BC-46F1-8B2D-A10451C89F41},,,,
-71.158536999920344,42.353889000250021,483,12081,12081,Faneuil St @ Donnybrook Rd,,42.353889,-71.158537,,,0,,0,{CB082FF7-9E84-4B06-B81A-49BFF28F4485},,,,
-71.052391000214016,42.320684999451217,484,121,121,Columbia Rd @ JFK/UMASS Station,,42.320685,-71.052391,,,0,place-jfk,0,{D708C1B6-6632-4319-BC1A-C9EAF314522E},,,,
-71.160986000524844,42.352673000096303,485,1210,1210,Faneuil St opp Garfield School,,42.352673,-71.160986,,,0,,0,{A10D3C23-DBA6-4606-9E97-8050C7B18AD1},,,,
-71.111037000123517,42.235159000663586,486,121008,121008,Curry College,,42.235159,-71.111037,,,0,,0,{7867C5E0-7860-4350-8954-1E5281917D81},,,,
-71.116430999385457,42.226416999616056,487,121009,121009,Blue Hill Ave from Curry Coll to Canton Ave (FLAG),,42.226417,-71.116431,,,0,,0,{58CF48AB-5418-4830-A0C0-168B738D902A},,,,
-71.119520000031571,42.218344999990052,488,121010,121010,Opp 1904 Canton Ave @ Trailside Museum,,42.218345,-71.11952,,,0,,0,{60E99461-4E79-48F1-9C29-A52485346A1B},,,,
-71.134842000234784,42.207225999308257,489,121011,121011,Royall St @ Compushare Driveway,,42.207226,-71.134842,,,0,,0,{75906722-8188-45DF-A5F7-A44FA6FB3E30},,,,
-71.131105999886231,42.207966999599478,490,121012,121012,Royall St @ Beacon Lane,,42.207967,-71.131106,,,0,,0,{59CE6017-325D-44DE-960F-09A03711A002},,,,
-71.129262000526921,42.20806100013727,491,121013,121013,Royall St @ Dunkin Brands Driveway,,42.208061,-71.129262,,,0,,0,{BEF6DDA1-4229-499E-8B1D-62A39B31190B},,,,
-71.124051999768184,42.207886000055524,492,121014,121014,Royall St @ JW Foster Blvd,,42.207886,-71.124052,,,0,,0,{FD5B4A22-4116-498F-AB60-EBBDC9E76B76},,,,
-71.119250999401203,42.218304999860116,493,121017,121017,1904 Canton Ave @ Trailside Museum,,42.218305,-71.119251,,,0,,0,{86535879-DEDE-4E9E-A458-A8146526448A},,,,
-71.116286000293655,42.226166999701377,494,121018,121018,Blue Hill Ave from Canton Ave to Curry Coll (FLAG),,42.226167,-71.116286,,,0,,0,{37717816-6611-4D8B-8C3F-127405926CE2},,,,
-71.11093399931822,42.234934000836724,495,121019,121019,Blue Hill Ave opp Curry College,,42.234934,-71.110934,,,0,,0,{C453C326-F287-46CF-B05E-F981591E9824},,,,
-71.163065999134162,42.352456001083823,496,1211,1211,Faneuil St @ Brooks St,,42.352456,-71.163066,,,0,,0,{76CD810A-EF52-4848-84FB-35D0BD8C259C},,,,
-71.165029999853076,42.352056000634072,497,1212,1212,Faneuil St @ Brackett St,,42.352056,-71.16503,,,0,,0,{9D5CAB72-46E9-49BC-BE41-7EC43B416A25},,,,
-71.167477999919072,42.351254000654521,498,1213,1213,Faneuil St @ Bigelow St,,42.351254,-71.167478,,,0,,0,{BD307320-A5EA-44C8-ADC2-CD263D757378},,,,
-71.167349000298401,42.351196001123149,499,1214,1214,Faneuil St @ Oak Square,,42.351196,-71.167349,,,0,,0,{A65EB474-1F32-4D55-88BE-6970D470222A},,,,
-71.148527000038072,42.378978000397517,500,12144,12144,Huron Ave opp Park Ave,,42.378978,-71.148527,,,0,,0,{0ED35459-251B-4775-81D0-9399B3BF527A},,,,
-71.152585000682862,42.380160000338137,501,12145,12145,Huron Ave opp VFW Post 8818,,42.38016,-71.152585,,,0,,0,{F291EF50-1E73-496E-9057-75B2BDF0E2F6},,,,
-71.154599000014571,42.381260999372962,502,12146,12146,Opp 700 Huron Ave,,42.381261,-71.154599,,,0,,0,{FFA3F316-F756-46DE-BA4A-D813019A3DA3},,,,
-71.154670001419447,42.381181000169953,503,12147,12147,700 Huron Ave,,42.381181,-71.15467,,,0,,0,{8A468F69-E2C9-43B6-922D-5F58A9D9078E},,,,
-71.152581999973506,42.380047000005753,504,12148,12148,Huron Ave @ VFW Post 8818,,42.380047,-71.152582,,,0,,0,{A29641BC-1C64-47CE-9C17-D5053B5A399D},,,,
-71.148475999883289,42.378874000695269,505,12149,12149,Huron Ave @ Park Ave,,42.378874,-71.148476,,,0,,0,{61A91129-D269-477A-9218-6F20317582B0},,,,
-71.098114999447219,42.317244000212213,506,1215,1215,Columbus Ave @ Bray St,,42.317244,-71.098115,,,0,,0,{1FB2150E-BB64-4860-A147-0B821C8AA5DE},,,,
-71.098159999118849,42.319448999674506,507,1216,1216,Columbus Ave @ Dimock St,,42.319449,-71.09816,,,0,,0,{F5FBF2AD-CA7C-47E2-8BAC-0B25265F7A33},,,,
-71.098263999503345,42.32230999998999,508,1218,1218,Columbus Ave @ Ritchie St,,42.32231,-71.098264,,,0,,0,{D9299BF0-07ED-405E-B6A0-405E91749555},,,,
-71.098079999641641,42.325015000397194,509,1219,1219,Columbus Ave @ Centre St,,42.325015,-71.09808,,,0,,0,{DEB24F15-E7CF-4F78-86F8-DAEF3B978CF9},,,,
-71.056973999927948,42.320660000445905,510,122,122,Columbia Rd @ Dorchester Ave,,42.32066,-71.056974,,,0,,0,{DCCB806F-8604-4115-9036-9BF976B596B1},,,,
-71.096920999612806,42.32801200078211,511,1221,1221,Columbus Ave @ Cedar St,,42.328012,-71.096921,,,0,,0,{F2FC472F-6193-489A-BAB9-4D22C8F9A8E4},,,,
-71.09446799977313,42.331191000147903,512,1222,1222,Columbus Ave @ Malcolm X Blvd,,42.331191,-71.094468,,,0,,0,{56163C64-AE21-45D5-89A6-EBE651B943A6},,,,
-71.09234299943148,42.332706000670306,513,1224,1224,Tremont St opp Prentiss St,,42.332706,-71.092343,,,0,,0,{1725A096-C9CD-4F03-8E3F-91B15FEFE33B},,,,
-71.088960999668714,42.336376999587621,514,1226,1226,Tremont St @ Ruggles St,,42.336377,-71.088961,,,0,place-rugg,0,{B3E703BC-CC2E-458E-83E1-0EE78E1304D8},,,,
-71.086825999498259,42.335697999867442,515,1227,1227,Tremont St @ Melnea Cass Blvd,,42.335698,-71.086826,,,0,,0,{4DDA6452-3130-49F1-9F12-B5EE7EBBD2D5},,,,
-71.084022000711386,42.337225999186089,516,1228,1228,Tremont St @ Hammond St,,42.337226,-71.084022,,,0,,0,{ACC498E3-7259-4008-97C3-3546E5D749AF},,,,
-71.129116000427217,42.396704000286427,517,12295,12295,North Cambridge Carhouse,,42.396704,-71.129116,,,0,,0,{B56F7625-2D51-4DA1-A80E-CBF977D35A63},,,,
-71.059996000108924,42.320045999538898,518,123,123,Columbia Rd opp Pond St,,42.320046,-71.059996,,,0,,0,{F10A0110-FC61-4DA3-ADCE-E209E93246B5},,,,
-71.081156000551147,42.338745999458396,519,1230,1230,Tremont St @ Northampton St,,42.338746,-71.081156,,,0,,0,{C6E89D8A-0388-456D-97FB-5AF19C3BA3D6},,,,
-71.119545000524482,42.388229000804508,520,12301,12301,Massachusetts Ave @ Upland Rd,,42.388229,-71.119545,,,0,,0,{79BBBC01-7FEC-4EC6-898A-EB2410AC8F5B},,,,
-71.079623000663702,42.339583999863891,521,1231,1231,Tremont St @ W Springfield St,,42.339584,-71.079623,,,0,,0,{1CB47F70-2FAD-4A4B-90F5-0826BB763326},,,,
-71.078156000134555,42.340406999120042,522,1232,1232,Tremont St @ W Concord St,,42.340407,-71.078156,,,0,,0,{115B232F-3E25-4F07-907C-6C2E7E65716D},,,,
-71.180683000816586,42.417801999001696,523,12323,12323,Park Ave @ Oakland Ave,,42.417802,-71.180683,,,0,,0,{459F53B0-679A-4AA1-96D4-BD4A7A486C97},,,,
-71.076653000125219,42.34123599963484,524,1233,1233,Tremont St @ W Newton St,,42.341236,-71.076653,,,0,,0,{39668ACA-1AE9-47A2-A2B0-A4877E16BF8B},,,,
-71.075413000729782,42.341886999662471,525,1234,1234,Tremont St @ W Brookline St,,42.341887,-71.075413,,,0,,0,{3B42138E-C8F5-4351-9AED-3CF250FAEDF2},,,,
-71.07394300041193,42.342665999768016,526,1235,1235,Tremont St @ W Dedham St,,42.342666,-71.073943,,,0,,0,{9C6134CD-379F-41AF-A472-670295AD508D},,,,
-71.164065000320107,42.405297999517252,527,12352,12352,Lake St @ Pleasant St,,42.405298,-71.164065,,,0,,0,{03FBFA73-9AED-4247-9BCE-DA596C7629F7},,,,
-71.071652999659918,42.343872999231436,528,1236,1236,Tremont St @ Waltham St,,42.343873,-71.071653,,,0,,0,{04434DA5-0BCC-406A-AACB-F9A9650FA062},,,,
-71.180413999774032,42.41531200046667,529,12360,12360,Park Ave @ Park Circle,,42.415312,-71.180414,,,0,,0,{6AB3C24C-64B3-407C-B8DA-BFF6ACDAAF51},,,,
-71.069867999915274,42.345144999251609,530,1237,1237,Tremont St @ E Berkeley St,,42.345145,-71.069868,,,0,,0,{1264BDB6-9A1E-42A7-ACC3-999F68D26DB2},,,,
-71.120846000266241,42.413056999906871,531,12376,12376,Winthrop St @ Orchard St,,42.413057,-71.120846,,,0,,0,{3BA9BE1C-FCFE-4152-AEF7-08970EC8044E},,,,
-71.068606999498812,42.34736299948014,532,1238,1238,Tremont St @ Herald St,,42.347363,-71.068607,,,0,,0,{DE2F21AB-6051-494B-8966-BF79B76DC1F3},,,,
-71.067594999074771,42.348179999950503,533,1239,1239,Tremont St @ Marginal St,,42.34818,-71.067595,,,0,,0,{DD946D9D-326F-438E-9EF0-9825A7144151},,,,
-71.061567000507026,42.320623000007878,534,124,124,Massachusetts Ave @ Columbia Rd,,42.320623,-71.061567,,,0,,0,{907DB04A-4E28-4C1B-98BD-E1764D9B0792},,,,
-71.06710100009397,42.351748000485998,535,1241,1241,Charles St S @ Park Plaza,,42.351748,-71.067101,,,0,,0,{0C35FB88-858C-478E-9EDE-AD091A848AB2},,,,
-71.066480998954077,42.348777000180512,536,1242,1242,Tremont St @ Charles St S,,42.348777,-71.066481,,,0,,0,{376229C6-8D3B-4918-8235-CD5FC150E7DD},,,,
-71.169766999711726,42.408188999909953,537,12432,12432,West Service Rd @ Spring St,,42.408189,-71.169767,,,0,,0,{E355EB1C-6107-45A5-94AC-A41300E40672},,,,
-71.072263998948642,42.34367299975996,538,1246,1246,Tremont St @ Union Pk,,42.343673,-71.072264,,,0,,0,{6150555C-A8C9-4C3E-8D08-683EDE9D0D2F},,,,
-71.199132000057162,42.417036999192895,539,12465,12465,Wadsworth Rd @ Appleton St,,42.417037,-71.199132,,,0,,0,{79018D9E-09C8-4001-92CD-0BD1EC7F0742},,,,
-71.191933999817607,42.41880699944592,540,12468,12468,Appleton St @ Virginia Rd,,42.418807,-71.191934,,,0,,0,{C19CD913-456D-47D1-B68F-0B6CFA71F212},,,,
-71.073689999780996,42.342909999315559,541,1247,1247,Tremont St @ Dartmouth St,,42.34291,-71.07369,,,0,,0,{B4C33B90-CAC5-4A1F-9D72-CBC5FBB3A051},,,,
-71.075917000164097,42.341737999998116,542,1248,1248,Tremont St @ Pembroke St,,42.341738,-71.075917,,,0,,0,{06CA5627-9007-406C-AA21-0D7D0AF4A518},,,,
-71.077301000429685,42.341006000406239,543,1249,1249,Tremont St @ Rutland Sq,,42.341006,-71.077301,,,0,,0,{D812642B-03B3-4BC1-BAD5-52AD1421B64D},,,,
-71.063944999702301,42.323479000156198,544,125,125,Massachusetts Ave @ Clapp St,,42.323479,-71.063945,,,0,,0,{3103273E-F9DF-4A15-B861-89842057BA57},,,,
-71.078786999591031,42.340186999756455,545,1250,1250,Tremont St @ Worcester St,,42.340187,-71.078787,,,0,,0,{7ACC4C92-F6DD-44CA-A610-12D970D64537},,,,
-71.079768000205121,42.339702999910081,546,1251,1251,Tremont St @ W Springfield St,,42.339703,-71.079768,,,0,,0,{D62FAFE6-D20A-4DC8-BA8F-B1E165EE63CD},,,,
-71.081129000417604,42.338954999653119,547,1252,1252,Tremont St @ Northampton St,,42.338955,-71.081129,,,0,,0,{385D5921-C7D7-4438-88D6-F7BF09A0AE75},,,,
-71.083178000948195,42.337823999645856,548,1253,1253,Tremont St @ Douglas Pk,,42.337824,-71.083178,,,0,,0,{8AFC57E1-1CF3-4E97-88A8-8EA3BE463601},,,,
-71.084799999049395,42.336907999314484,549,1254,1254,Tremont St @ Burke St,,42.336908,-71.0848,,,0,,0,{430E214B-9887-41E1-AE0F-864172AACB97},,,,
-71.08694799856022,42.33577899971543,550,1255,1255,Tremont St @ Columbus Ave,,42.335779,-71.086948,,,0,,0,{14C8BAEF-E147-4B98-A7E8-ADF7924E423A},,,,
-71.092377999791921,42.333071000566214,551,1257,1257,Tremont St @ Prentiss St,,42.333071,-71.092378,,,0,,0,{694B7932-532A-45F4-AF25-F9E069CFAD38},,,,
-71.095451000103878,42.331396999633704,552,1258,1258,Tremont St @ Roxbury Crossing Station,,42.331397,-71.095451,,,0,place-rcmnl,0,{43DF3836-307A-4A1F-AB20-A2F6099A0C20},,,,
-71.09088099933193,42.331089999772374,553,1259,1259,Malcolm X Blvd opp Madison Park HS,,42.33109,-71.090881,,,0,,0,{5C65D8A6-242E-4410-B892-22DF91B05ADA},,,,
-71.064919000520845,42.324658999529284,554,126,126,Massachusetts Ave @ Allstate Rd,,42.324659,-71.064919,,,0,,0,{01B80A28-E53E-4A8B-B151-8508F0344946},,,,
-71.097310000186923,42.328066999269531,555,1260,1260,Columbus Ave @ New Cedar St,,42.328067,-71.09731,,,0,,0,{20540158-68D7-4BEF-805B-FF436C29E789},,,,
-71.091690998982358,42.37824200000879,556,12610,12610,Somerville Ave @ Merriam St,,42.378242,-71.091691,,,0,,0,{520EF3CD-0618-4177-8785-05933938649C},,,,
-71.120538000059454,42.377758999614805,557,12614,12614,Waterhouse St @ Massachusetts Ave,,42.377759,-71.120538,,,0,,0,{F993D21C-EC0F-49F5-838D-808DF326CE0F},,,,
-71.100331000212364,42.381485000747439,558,12615,12615,Somerville Ave @ Church St,,42.381485,-71.100331,,,0,,0,{F2243B13-1FFA-4D8A-9358-FCB91D201F80},,,,
-71.101851999892574,42.381997999990951,559,12616,12616,Somerville Ave @ School St,,42.381998,-71.101852,,,0,,0,{D0777274-2A9A-4D10-89D9-4E0E1A9FCD58},,,,
-71.172161000230417,42.249232999853497,560,12618,12618,Washington St opp Harris St,,42.249233,-71.172161,,,0,,0,{C5794AD3-8778-4474-8F1A-66553BEC8B8E},,,,
-71.098482998972628,42.325027999449652,561,1262,1262,Columbus Ave @ Heath St,,42.325028,-71.098483,,,0,,0,{641DE051-BAA7-483E-991B-0A64609526A8},,,,
-71.132576999987165,42.406460999714348,562,12636,12636,Broadway opp Clarendon Hill Busway,,42.406461,-71.132577,,,0,,0,{C894824F-E2FD-43A8-8642-256ACBFA85B9},,,,
-71.134568000336984,42.407392999449058,563,12637,12637,Broadway @ Sunnyside Ave,,42.407393,-71.134568,,,0,,0,{0E932AFA-04FA-4AE3-B8A4-5F5CEDEF7BB1},,,,
-71.135975998814999,42.40805600052596,564,12638,12638,Broadway @ Silk St,,42.408056,-71.135976,,,0,,0,{CA69A205-CFFB-4959-912E-CF34AD7FF0E0},,,,
-71.137589999607371,42.408827001259397,565,12639,12639,Broadway opp Cleveland St,,42.408827,-71.13759,,,0,,0,{5A58121C-4021-4DD7-A3A0-2F9069613218},,,,
-71.098627999259421,42.322362999630592,566,1264,1264,Columbus Ave @ Amory St,,42.322363,-71.098628,,,0,,0,{8F20C5E0-D42D-46BF-9014-94C8F9F43DBE},,,,
-71.139285000337509,42.409650000143778,567,12640,12640,Broadway @ N Union St,,42.40965,-71.139285,,,0,,0,{CAD63675-C5CF-4070-996E-730548D349A9},,,,
-71.141392999822358,42.410664000768953,568,12641,12641,Broadway opp Harlow St,,42.410664,-71.141393,,,0,,0,{9EA1E54C-6F84-4247-9A83-2648CB3236FC},,,,
-71.143421000183793,42.411536999593295,569,12642,12642,Broadway @ Tufts St,,42.411537,-71.143421,,,0,,0,{0DED7866-51AF-4D23-A8B6-D6CB57FDA35A},,,,
-71.145570999562366,42.412421999854026,570,12643,12643,Broadway @ Allen St,,42.412422,-71.145571,,,0,,0,{F9AB1902-CA9F-4D86-92A3-C9F2B741C15D},,,,
-71.150281999739576,42.414341000250843,571,12645,12645,Broadway @ Massachusetts Ave,,42.414341,-71.150282,,,0,,0,{5E5C0517-E60C-438D-899D-80C4927E964E},,,,
-71.145560999827893,42.412312000076717,572,12648,12648,Broadway @ Allen St,,42.412312,-71.145561,,,0,,0,{60BC8921-87F3-4B72-BFEC-6E67CB8FC017},,,,
-71.14341099850482,42.411425000255882,573,12649,12649,Broadway @ Tufts St,,42.411425,-71.143411,,,0,,0,{9A389A55-DC56-49A5-8CA0-40843FD6182E},,,,
-71.09854000033566,42.319662000108522,574,1265,1265,Columbus Ave @ Dimock St,,42.319662,-71.09854,,,0,,0,{C6067B3D-8058-48D6-9D21-BA656F34ED63},,,,
-71.141393998666416,42.410554000255303,575,12650,12650,Broadway @ Harlow St,,42.410554,-71.141394,,,0,,0,{6183497A-008E-4BBC-9109-ADB8CB3029C2},,,,
-71.139313000066096,42.409520001008275,576,12651,12651,Broadway @ Oxford St,,42.40952,-71.139313,,,0,,0,{18DD9FE3-F272-4542-9156-0E622E4E1FF1},,,,
-71.137312999778388,42.408588000587208,577,12652,12652,Broadway @ Cleveland St,,42.408588,-71.137313,,,0,,0,{B1C9B571-232D-4344-8680-55D98F850E00},,,,
-71.135960000028319,42.407932000411691,578,12653,12653,Broadway opp Silk St,,42.407932,-71.13596,,,0,,0,{5F40027F-B412-49F5-ADA7-1CE837F293E5},,,,
-71.134563001517279,42.407283999662617,579,12654,12654,Broadway opp Sunnyside Ave,,42.407284,-71.134563,,,0,,0,{84C42EA5-D27B-41A3-B105-927DF7A798CA},,,,
-71.098434000234306,42.317065999685283,580,1266,1266,Columbus Ave @ W Walnut Pk,,42.317066,-71.098434,,,0,,0,{423C83F4-F4F1-49B6-87C1-96BB2982D18E},,,,
-71.098397000457922,42.315895000431539,581,1267,1267,Columbus Ave @ Washington St,,42.315895,-71.098397,,,0,,0,{331736C8-00C9-4835-B3D5-5B1FA5A8E9E5},,,,
-71.149882000614909,42.348224000123153,582,1268,1268,Washington St @ Shepard St,,42.348224,-71.149882,,,0,,0,{E7CF16AF-283E-48C2-B62D-7615DF08713A},,,,
-71.148221000559715,42.346879999620796,583,1269,1269,Washington St @ Snow St,,42.34688,-71.148221,,,0,,0,{0F312700-41D2-4F6B-BE4A-F069FC94C19B},,,,
-71.146378999137838,42.346111000261473,584,1270,1270,Washington St @ Monastery Rd,,42.346111,-71.146379,,,0,,0,{52D5B721-C5FB-49B0-91D0-00C7891DCE77},,,,
-71.144681999752692,42.344633000610557,585,1272,1272,Washington St @ Euston St,,42.344633,-71.144682,,,0,,0,{DE5416CC-B9E1-429E-8C04-D167537BC477},,,,
-71.143266000205003,42.343867999761173,586,1273,1273,Washington St @ Commonwealth Ave,,42.343868,-71.143266,,,0,,0,{79444E66-D38A-4D19-A551-C37493BA220B},,,,
-71.140566998841322,42.342393999671181,587,1274,1274,Washington St @ Corey Rd,,42.342394,-71.140567,,,0,,0,{9007955B-26A5-4F01-8BAC-BA86D0EC7B06},,,,
-71.137944999662338,42.34104199967453,588,1275,1275,Wahington St @ Evans Rd,,42.341042,-71.137945,,,0,,0,{2E4E17BF-2921-4A79-9DE4-AA6FDA7D2A6C},,,,
-71.083810000566871,42.381734000844773,589,12759,12759,Washington St @ Myrtle St - Cobble Hill Apt,,42.381734,-71.08381,,,0,,0,{9ED5365A-0E49-41CB-ADBE-B900B190CFBF},,,,
-71.135329999771557,42.339393999908097,590,1276,1276,Washington St @ Beacon St,,42.339394,-71.13533,,,0,place-bcnwa,0,{AD5C37A9-1F23-4F2F-8FC8-64BB92D6269D},,,,
-71.100063001346868,42.3752829991545,591,12767,12767,Springfield St opp Houghton St,,42.375283,-71.100063,,,0,,0,{BA077694-0435-4B62-AA19-C594599EDC2A},,,,
-71.134258000759615,42.338723000089722,592,1277,1277,684 Washington St,,42.338723,-71.134258,,,0,,0,{458CEFA6-0027-4D4B-84A6-C340D7FF12C2},,,,
-71.131602001215214,42.338306999744724,593,1278,1278,Washington St @ Winthrop Path,,42.338307,-71.131602,,,0,,0,{E69A130E-AF10-453D-98CB-7E8E26C8F16D},,,,
-71.125998999407159,42.256320000121526,594,12783,12783,Gordon Ave @ Summer St,,42.25632,-71.125999,,,0,,0,{DD264609-B2D0-45DD-BCF0-E253D8CDC783},,,,
-71.127641000320395,42.26477699959856,595,12789,12789,West St @ Lodge Hill Rd,,42.264777,-71.127641,,,0,,0,{06F258C3-E773-46BA-B596-E80229739BFA},,,,
-71.129157000026225,42.338411999132632,596,1279,1279,Washington St @ Gardner Rd,,42.338412,-71.129157,,,0,,0,{94554414-DA66-4E04-B6E2-D9939347245C},,,,
-71.067744000454411,42.327983999724381,597,128,128,1010 Massachusetts Ave opp Magazine St,,42.327984,-71.067744,,,0,,0,{0DB52FAC-2D54-42CE-8E9A-708F8981524D},,,,
-71.126480000132247,42.336981999593753,598,1280,1280,Washington St @ Gardner Path,,42.336982,-71.12648,,,0,,0,{DF8198E3-623E-4377-A011-D4543ED8F905},,,,
-71.124666999647033,42.335129000269077,599,1281,1281,Washington St @ Greenough Circle,,42.335129,-71.124667,,,0,,0,{B774E175-7C5B-4AF0-9AE9-D87FE1AD01B7},,,,
-71.127670999233814,42.264668000078032,600,12812,12812,West St opp Lodge Hill Rd,,42.264668,-71.127671,,,0,,0,{AF518625-B236-46A9-88F7-F370B04D7154},,,,
-71.125676999792887,42.255681999354536,601,12817,12817,Gordon Ave @ River St,,42.255682,-71.125677,,,0,,0,{01093A52-EDF4-4BCA-8E22-D7D9835A50D0},,,,
-71.122877000704051,42.334528001088678,602,1282,1282,Washington St @ Cypress St,,42.334528,-71.122877,,,0,,0,{54AFD622-8CE2-46FC-B5B7-E2C5C1205A1A},,,,
-71.072325999983264,42.383720000540634,603,12821,12821,Main St opp Schraffts Bldg,,42.38372,-71.072326,,,0,,0,{7BBD3BB5-63DE-4697-BDFC-0CEA515311F9},,,,
-71.06385000045789,42.374604999647765,604,12826,12826,Main St @ Union St,,42.374605,-71.06385,,,0,,0,{1964FB8C-2286-4925-B1F2-15D1570B5E56},,,,
-71.058310000933531,42.373832999421687,605,12828,12828,Chelsea St opp Constitution Rd,,42.373833,-71.05831,,,0,,0,{3A88EE14-365A-4228-857B-C0A91A284E41},,,,
-71.060948999468309,42.371907001023693,606,12829,12829,Chelsea St @ Warren St,,42.371907,-71.060949,,,0,,0,{677EBC9E-4E75-4954-8BF9-7600396384C9},,,,
-71.118878000012344,42.332915000447628,607,1283,1283,Washington St @ Harvard St,,42.332915,-71.118878,,,0,,0,{1D760162-979E-4C20-96CD-FEE312CEED9B},,,,
-71.060232999261174,42.372149000237449,608,12836,12836,Chelsea St @ Warren St,,42.372149,-71.060233,,,0,,0,{9C29E96E-FF10-4B2C-A6F7-8D001CEE4D81},,,,
-71.056094000569132,42.375104999467162,609,12837,12837,Fifth St @ Chelsea St,,42.375105,-71.056094,,,0,,0,{C0884857-5A7E-4667-B915-45122A617F7B},,,,
-71.056282000588396,42.37518199885902,610,12838,12838,Chelsea St @ Fifth St,,42.375182,-71.056282,,,0,,0,{70505FD5-D804-474B-B704-840231413E06},,,,
-71.056860001163201,42.376957999701467,611,12852,12852,Vine St @ Bunker Hill St,,42.376958,-71.05686,,,0,,0,{072D48A5-16B4-4183-BB07-470E71E00B73},,,,
-71.051157001061767,42.377066999640697,612,12853,12853,Thirteenth St @ Second Ave,,42.377067,-71.051157,,,0,,0,{EA1109A3-C806-4135-ACB9-D488C78498F1},,,,
-71.052615000888579,42.376088000153743,613,12855,12855,First Ave @ Ninth St,,42.376088,-71.052615,,,0,,0,{83797A80-795E-4C5F-AB4E-3F6EDFCF85AE},,,,
-71.055079000899525,42.374587999026929,614,12856,12856,First Ave @ Fifth St,,42.374588,-71.055079,,,0,,0,{0EF9C136-4191-485C-843B-53EE9ED48D57},,,,
-71.058191001116839,42.373770999065762,615,12858,12858,Chelsea St @ Constitution Rd,,42.373771,-71.058191,,,0,,0,{6F3DD48D-76DE-4EEF-B25F-E121254EAE57},,,,
-71.05446500060755,42.374814999238417,616,12859,12859,First Ave @ Terry Ring,,42.374815,-71.054465,,,0,,0,{CFA1C85D-7AF5-4CD1-9EE4-272DD96E34AE},,,,
-71.118832999593849,42.333022000204387,617,1286,1286,Washington St @ Harvard St,,42.333022,-71.118833,,,0,,0,{545FFD2A-1799-42B4-9931-2937135F77CA},,,,
-71.052255000350556,42.376199000377106,618,12860,12860,First Ave @ Ninth St,,42.376199,-71.052255,,,0,,0,{E6EEEC12-F6D9-44AE-9210-01436BDE1B04},,,,
-71.052028999989972,42.378090000797606,619,12862,12862,Thirteenth St @ Fifth Ave,,42.37809,-71.052029,,,0,,0,{A63F65CD-9078-4CA8-9427-FD266FD08A00},,,,
-71.069736000215073,42.382513999991374,620,12866,12866,Bunker Hill St @ Baldwin St,,42.382514,-71.069736,,,0,,0,{8D400E31-7D60-436A-B1B0-22DCC9B1C063},,,,
-71.122470999632583,42.334491000241563,621,1287,1287,Washington St @ School St,,42.334491,-71.122471,,,0,,0,{3FE328DD-027A-4405-B5B6-8C125FB964A4},,,,
-71.124648000954309,42.335239000312292,622,1288,1288,Washington St opp Greenough St,,42.335239,-71.124648,,,0,,0,{3449D218-4E13-47FC-B611-540FCB8E4C9C},,,,
-71.109876999629236,42.414369999532774,623,12888,12888,Mystic Ave opp Union St,,42.41437,-71.109877,,,0,,0,{7222C2AF-10FA-47DF-9215-5232303726CD},,,,
-71.126746999984547,42.337403000121803,624,1289,1289,Washington St @ Griggs Rd,,42.337403,-71.126747,,,0,,0,{51C43234-3083-456F-ACDE-58B4BFBA6A58},,,,
-71.054078999734728,42.355394999925849,625,12891,12891,Pearl St @ High St,,42.355395,-71.054079,,,0,,0,{361A0B4A-4047-42E0-9461-26D0729266DB},,,,
-71.175667000267254,42.27895899872194,626,129,129,Rivermoor St @ Charles Park Rd,,42.278959,-71.175667,,,0,,0,{023F850F-8121-4C59-965A-3B5E07CE11F3},,,,
-71.129183999457283,42.338496999955922,627,1290,1290,Washington St opp Gardner Rd,,42.338497,-71.129184,,,0,,0,{8897C626-9AE2-4A6D-B990-A5DFD2493DF7},,,,
-71.131336000065829,42.338363999650461,628,1291,1291,Washington St @ Fairbanks St,,42.338364,-71.131336,,,0,,0,{03366F48-FC70-4811-A35C-D84D46A91D70},,,,
-71.135329999771557,42.339393999908097,629,1292,1292,Washington St @ Beacon St,,42.339394,-71.13533,,,0,place-bcnwa,0,{F54853A3-3128-45B7-BF0F-C35DE606EA59},,,,
-71.138161999794363,42.341245000066401,630,1293,1293,Washington St @ Bartlett St,,42.341245,-71.138162,,,0,,0,{0B91E117-67C9-4A78-825F-2DE3D3876612},,,,
-71.067210999522061,42.314492000568663,631,12932,12932,Columbia Rd @ Bird St,,42.314492,-71.067211,,,0,,0,{288D0BA7-F025-470F-80C4-6D6A97A53390},,,,
-71.140501999288986,42.342465999418948,632,1294,1294,Washington St @ Corey Rd,,42.342466,-71.140502,,,0,,0,{015CF41F-5BEA-4BFB-8E4D-A08081FF01D9},,,,
-71.057844999815941,42.328037000278883,633,12940,12940,Boston St @ Fr Songin Way,,42.328037,-71.057845,,,0,,0,{03EDECA2-6E15-4167-B1A8-7D7409E09968},,,,
-71.208326999717073,42.419813000072715,634,12941,12941,Watertown St opp Green Ln,,42.419813,-71.208327,,,0,,0,{45739AE5-009E-4EE2-AA2B-CD8F6515F3AF},,,,
-71.142524000146608,42.343585999915135,635,1295,1295,Washington St @ Commonwealth Ave,,42.343586,-71.142524,,,0,,0,{0F4E4F02-6FAE-4E84-BA67-72FF4FC94A6F},,,,
-71.144415999357449,42.344593000015308,636,1296,1296,Washington St opp Euston Rd,,42.344593,-71.144416,,,0,,0,{D2654C76-24C6-4460-BC81-6F527ACC56FC},,,,
-71.146117000948934,42.346056000565838,637,1298,1298,Washington St @ Monastery Rd,,42.346056,-71.146117,,,0,,0,{9F64ABAF-44A7-41C7-B0D9-95963D8D9C96},,,,
-71.148213000398997,42.346992000443457,638,1299,1299,Washington St opp Snow St,,42.346992,-71.148213,,,0,,0,{28EBDCF0-306B-496A-B239-5A9DC54B1A42},,,,
-71.057655001658034,42.330154000875659,639,13,13,Andrew Station Busway,,42.330154,-71.057655,,,0,place-andrw,0,{1DC7B8D2-6B8D-4122-875E-7BC01868F76F},,,,
-71.149638000503444,42.348130000302561,640,1300,1300,Washington St opp Shepard St,,42.34813,-71.149638,,,0,,0,{1E397776-8CE7-49B7-985B-EF112A958CFC},,,,
-71.150755000192191,42.348814000122765,641,1301,1301,7 Winship St,,42.348814,-71.150755,,,0,,0,{DBD1512B-4546-4280-8858-A1C4D01CA3C8},,,,
